name,categoria,lat,lon
,farmacia,39.474955699999995,-0.36487809999999965
,farmacia,39.47797139999999,-0.36314690000000094
Mercadona,alimentacion,39.4766594,-0.36281269999999977
Sant Isidre,transporte,39.4510701,-0.40261730000000057
Facultats Manuel Broseta,transporte,39.4778139,-0.3623614000000001
Facultats Manuel Broseta,transporte,39.47764589999999,-0.3618003000000009
Facultats Manuel Broseta,transporte,39.4783917,-0.3614166999999998
Facultats Manuel Broseta,transporte,39.47855540000001,-0.3619944000000009
Colón,transporte,39.47030440000001,-0.3708839000000005
Colón,transporte,39.46952550000001,-0.37154380000000065
Farmacia del Treda,farmacia,39.4951529,-0.39641490000000096
Farmacia Castejon,farmacia,39.451077,-0.40310139999999983
,farmacia,39.453284,-0.4031130000000006
Mercadona,alimentacion,39.4531762,-0.4033839000000013
,salud,39.453991599999995,-0.37672350000000093
Consum,alimentacion,39.4505646,-0.37216540000000137
Consum,alimentacion,39.4526054,-0.37522030000000045
Farmacia Vidal Simeón,farmacia,39.45431309999999,-0.37669050000000043
Consum,alimentacion,39.45490800000002,-0.3757511000000008
Vicent Zaragozà,transporte,39.4833051,-0.35728990000000116
Universitat Politècnica,transporte,39.4811835,-0.35001369999999987
la Carrasca,transporte,39.479595,-0.3444999000000003
Tarongers Ernest Lluch,transporte,39.47816329999999,-0.33953370000000055
Beteró,transporte,39.476702,-0.33446840000000116
,farmacia,39.45342509999999,-0.37165899999999985
,farmacia,39.45227069999999,-0.3720970000000007
Mercadona,alimentacion,39.4537653,-0.40372650000000043
Centro de salud San Isidro,salud,39.4512596,-0.4029061000000002
,farmacia,39.4574659,-0.3925276999999989
C/ Dr. Sanchis Sivera,transporte,39.469633699999996,-0.3849028000000003
C/ Xàtiva / Pl. San Agustín,transporte,39.467813899999996,-0.3776238000000008
C/ Conca,transporte,39.46956620000001,-0.38406990000000074
La Cadena,transporte,39.475244499999995,-0.3294173000000008
Platja Malva-rosa,transporte,39.473896999999994,-0.3256238000000012
Platja les Arenes,transporte,39.46902360000001,-0.3256364999999998
Dr. Lluch,transporte,39.46843750000001,-0.32812699999999984
Cabanyal,transporte,39.47227399999999,-0.3275746000000013
Benimaclet,transporte,39.4849982,-0.3630506000000007
Trinitat,transporte,39.4863151,-0.3675371999999999
Pont de Fusta,transporte,39.48218839999999,-0.37291299999999966
Palau de Congressos,transporte,39.49723590000001,-0.40006840000000043
Garbí,transporte,39.4921542,-0.3941330000000002
Benicalap,transporte,39.489968199999986,-0.39001609999999987
Trànsits,transporte,39.48955329999999,-0.3870384999999994
Marxalenes,transporte,39.487955199999995,-0.3838592000000009
Reus,transporte,39.4859308,-0.38171709999999937
,farmacia,39.47368659999999,-0.38366680000000014
Farmacia Amparo Hortiguela,farmacia,39.47279810000001,-0.380878299999999
Carda - Moro Zeit,transporte,39.4751061,-0.3808685999999995
Porta de la Mar,transporte,39.4716561,-0.36774260000000075
Ferran el Catòlic - S. Ignacio de Loyola,transporte,39.473763299999995,-0.3877646000000022
Edifici del Rellotge,transporte,39.460356999999995,-0.3324960999999999
Dr. Lluch - Vicent Gallart,transporte,39.4656252,-0.3285489999999994
Mediterrani,transporte,39.4672337,-0.3283056000000006
Dr. Lluch,transporte,39.46940079999999,-0.3279746999999996
Cabanyal,transporte,39.471664600000004,-0.32764949999999904
Dr. Lluch - Vicent Guillot,transporte,39.47346929999999,-0.32737690000000036
Cavite - Riu Tajo,transporte,39.476167100000005,-0.3265469000000005
Cavite - Vicent la Roda,transporte,39.47907250000001,-0.3266808000000017
Cavite - Font d'en Carròs,transporte,39.4815287,-0.3266952999999994
Malva-rosa - Cavite,transporte,39.48316839999998,-0.32656740000000123
la Malva-rosa - Mendizábal,transporte,39.48381129999999,-0.3278537000000011
la Malva-rosa - Sant Joan de Déu,transporte,39.47802459999999,-0.32810150000000077
la Malva-rosa - Riu Tajo,transporte,39.4762116,-0.32780300000000007
Pintor Ferrandis - Progrés,transporte,39.472021600000005,-0.3288096
Pintor Ferrandis - Àngels,transporte,39.47225310000001,-0.3317084999999997
Pintor Ferrandis - Josep Benlliure,transporte,39.4719649,-0.3294355000000009
Església dels Àngels - Pintor Ferrandis,transporte,39.47237630000001,-0.3318723
Mercat del Cabanyal,transporte,39.468427999999996,-0.33243570000000067
Reina - Columbretes,transporte,39.46811490000002,-0.3288058999999996
Manuel Soto Enginyer - Comandància Marina,transporte,39.455754600000006,-0.33037539999999893
Manuel Soto Enginyer - Estació,transporte,39.4583399,-0.3322737000000006
Major de Natzaret - Vilanova i Piera,transporte,39.451973300000006,-0.33367579999999986
Pont de les Drassanes,transporte,39.4544964,-0.3306676000000006
Major de Natzaret - Castell de Pop,transporte,39.44852819999999,-0.33463619999999944
Mercat de Natzaret,transporte,39.45023729999999,-0.33415620000000035
Vall de la Ballestera - Campanar,transporte,39.480863899999996,-0.3936647000000005
Aras de los Olmos - Castell de Pop,transporte,39.4486455,-0.3330301999999997
Punta al Mar - Camí Canal,transporte,39.4448201,-0.33519430000000033
Eugenia Viñes - Camps,transporte,39.47256949999999,-0.32565630000000045
Platja Les Arenes,transporte,39.4695889,-0.3256733000000009
Poliesportiu Natzaret - Moraira,transporte,39.450407899999995,-0.3325133000000008
Poliesportiu Natzaret - Pont de les Drassanes,transporte,39.4518255,-0.33208550000000064
Blasco Ibáñez - Ramon Llull,transporte,39.474373400000005,-0.3487409999999996
Blasco Ibáñez - Vinalopó,transporte,39.475118,-0.351212900000001
Ramon Llull - Escultor Alfons Gabino,transporte,39.47524359999999,-0.3471374000000011
Blasco Ibáñez - República Argentina,transporte,39.474816999999994,-0.35119110000000037
Blasco Ibáñez - Dr. Manuel Candela,transporte,39.474157899999994,-0.3490533000000003
Blasco Ibáñez - Actor Enrique Rambal,transporte,39.472801299999986,-0.3426064
Blasco Ibáñez - Hondures,transporte,39.473772000000004,-0.34590440000000044
Blasco Ibáñez - José María Orense,transporte,39.47200819999998,-0.3399610999999998
Sants Just i Pastor - Humanista Furió,transporte,39.468843099999994,-0.3449163000000002
Blasco Ibáñez - Enginyer Rafael Janini,transporte,39.4713643,-0.3402779000000012
Blasco Ibáñez - Músic Ginés,transporte,39.4721346,-0.3429228999999991
Blasco Ibáñez - Actriu Encarna Máñez,transporte,39.47309739999999,-0.34617380000000153
Sants Just i Pastor - Lluís de Milà,transporte,39.470745,-0.35220860000000054
Centre de Salut República Argentina,transporte,39.471093799999984,-0.3526876000000001
Amistat,transporte,39.470322,-0.3500597000000001
Sants Just i Pastor - Lleons,transporte,39.469488500000004,-0.3472288000000001
Dr. Manuel Candela (parell) - Blasco Ibáñez,transporte,39.4728012,-0.3481292000000014
Dr. Manuel Candela (parell) - Rodríguez de Cepeda,transporte,39.4682958,-0.34996530000000114
Sants Just i Pastor - Peris Brell,transporte,39.46901399999999,-0.34627700000000095
Amistat,transporte,39.4698215,-0.3490818999999999
Blasco Ibáñez - Almela i Vives,transporte,39.4768374,-0.35619509999999954
Blasco Ibáñez - Rubén Darío,transporte,39.4758773,-0.3538671000000003
Cardenal Benlloch - Dr. Vicente Pallarés,transporte,39.474221400000005,-0.3528733000000005
Cardenal Benlloch (parell) - Port,transporte,39.467575899999986,-0.3561395000000001
Jardí de Monforte,transporte,39.4788198,-0.36567740000000015
Blasco Ibáñez - Rectorat,transporte,39.4791388,-0.36505129999999997
Blasco Ibáñez (parell) - Ciutat Universitària,transporte,39.4780896,-0.3631682000000004
Facultats,transporte,39.477557,-0.3613953000000009
Blasco Ibáñez - Gascó Oliag,transporte,39.4772399,-0.3576203000000009
Facultat de Psicologia,transporte,39.47798499999999,-0.36011150000000064
Hospital Clínic,transporte,39.4789358,-0.3634283999999996
Blasco Ibáñez - Jaume Roig,transporte,39.47959849999999,-0.36555400000000027
Cabanilles - Primat Reig,transporte,39.48398949999999,-0.3641976000000005
Cabanilles - Álvaro de Bazán,transporte,39.48195969999999,-0.3652084
Cabanilles - Vivers,transporte,39.4798977,-0.36621850000000056
Jaume Roig - Álvaro de Bazán,transporte,39.48128899999998,-0.3639781000000009
Facultat de Filologia,transporte,39.4768946,-0.3591775000000006
Blasco Ibáñez - Bèlgica,transporte,39.4758319,-0.3548400000000009
Dr. Gómez Ferrer - Menéndez y Pelayo,transporte,39.4799124,-0.3609465000000012
Primat Reig - Campus Universitari,transporte,39.4801748,-0.3581365000000005
Primat Reig - Jaume Roig,transporte,39.4840655,-0.36339019999999955
Primat Reig - Emili Baró,transporte,39.48426909999999,-0.36318980000000056
Primat Reig - Camí Vera,transporte,39.4803423,-0.3579151000000008
Benimaclet,transporte,39.48512430000001,-0.36208230000000036
Jaume Roig - Primat Reig,transporte,39.4831899,-0.3630322999999988
Emili Baró - Francesc Martínez,transporte,39.48822340000001,-0.3605738999999991
Emili Baró - Manuel Castellanos,transporte,39.4865886,-0.36138870000000084
Sant Joan Bosco - Daroca,transporte,39.496614699999995,-0.36986810000000037
Primat Reig - Almassora,transporte,39.4882499,-0.36899359999999987
Primat Reig - Bilbao,transporte,39.49013029999999,-0.37151100000000065
Pare Viñas - Reig Genovés,transporte,39.49207890000001,-0.3717248000000003
Primat Reig - Sant Vicent de Paül,transporte,39.49006899999999,-0.37102759999999946
Pare Viñas - Daroca,transporte,39.4957828,-0.3689941000000002
Pare Viñas - Duc de Mandas,transporte,39.4942394,-0.3703963000000005
Primat Reig - Calderón de la Barca,transporte,39.486050899999995,-0.3660655000000003
Aragó - Passeig de l'Albereda,transporte,39.46947149999999,-0.36012790000000083
Primat Reig,transporte,39.48699379999999,-0.36789070000000096
Centre d'Especialitats Ricard Trénor,transporte,39.4818137,-0.37060029999999966
Alboraia - Jaca,transporte,39.4840793,-0.36942910000000034
Eduard Boscà - Passeig de l'Albereda,transporte,39.4646234,-0.3578486999999997
Eduard Boscà - Balears,transporte,39.464559,-0.35760470000000144
Ernest Ferrer - Polo y Peyrolón,transporte,39.47179810000001,-0.35523449999999945
Cardenal Benlloch (imparell) - Port,transporte,39.46745399999998,-0.35647259999999986
Cardenal Benlloch - Ciutat de Mula,transporte,39.47418809999999,-0.35316899999999973
Cardenal Benlloch - Ernest Ferrer,transporte,39.4720087,-0.35422429999999905
Vivers,transporte,39.47792739999999,-0.3669341000000004
Vivers,transporte,39.477321499999995,-0.3674738000000007
Constitució (parell) - Campaneta,transporte,39.50234319999999,-0.36852950000000095
Sant Miquel dels Reis,transporte,39.49883220000001,-0.3702458000000002
Constitució - Sant Joan de la Penya,transporte,39.49653500000001,-0.37081549999999863
Constitució - Duc de Mandas,transporte,39.49459089999999,-0.3719193000000009
Dr. Peset Aleixandre - Constitució,transporte,39.4917498,-0.3748058000000007
Dr. Peset Aleixandre - Camí de Montcada,transporte,39.49084959999999,-0.3788877000000014
Dr. Peset Aleixandre - Guardacostes,transporte,39.4899889,-0.38278160000000017
Dr. Peset Aleixandre - Joan XXIII,transporte,39.4901869,-0.38298619999999994
Joan XXIII (parell) - Félix del Río,transporte,39.491127,-0.38227920000000176
Constitució - Coronel Montesinos,transporte,39.493276,-0.3733843000000005
Sant Miquel dels Reis,transporte,39.49930779999998,-0.370291199999999
Constitució (imparell) - Campaneta,transporte,39.50242889999999,-0.3686354000000004
Constitució (parell) - Tavernes Blanques,transporte,39.504249699999995,-0.36779200000000223
Camí de Montcada (parell) - Matador,transporte,39.51549450000001,-0.38685219999999915
Camí de Montcada - Alqueria Ballester,transporte,39.5102904,-0.38581419999999983
Camí de Montcada (parell) - Alqueria Senent,transporte,39.52156829999999,-0.38646920000000073
Carpesa,transporte,39.51495320000001,-0.37693929999999976
Benifaraig a Montcada - Boquera,transporte,39.525266599999995,-0.3862209000000002
Benifaraig a Montcada - Casa Silvestre,transporte,39.52525359999999,-0.3860452999999998
Sant Doménec Savio - Constitució,transporte,39.4925801,-0.37413139999999967
Sant Doménec Savio - Mestre Maçal,transporte,39.4934838,-0.37452030000000053
Camí de Montcada (parell) - Cambrils,transporte,39.4946493,-0.3801831000000009
Camí de Montcada - Dr. Peset Aleixandre,transporte,39.4914741,-0.37864439999999994
Camí de Montcada - Entrada Camí Carpesa,transporte,39.5028031,-0.3827055999999994
Camí de Montcada (parell) - Alemany,transporte,39.496436300000006,-0.3809054000000002
Camí de Montcada - Casa d'Àngel,transporte,39.50683579999999,-0.3839933000000006
Camí de Montcada - Poble Nou,transporte,39.5050548,-0.38368189999999963
Camí de Montcada (imparell) - Cambrils,transporte,39.494877200000005,-0.38048350000000125
Camí de Montcada - Félix del Río,transporte,39.4917919,-0.3790790999999998
Burjassot - Mondúver,transporte,39.4894203,-0.39033920000000066
Burjassot - Pintor Matarana,transporte,39.492316599999995,-0.39331000000000055
Burjassot - Salvador Tusset,transporte,39.49464269999999,-0.3957214000000001
Parc de Benicalap,transporte,39.4956688,-0.3962550000000003
Sant Josep Artesà - Luis Martí Alegre,transporte,39.4983633,-0.3938336000000002
Parc de Benicalap,transporte,39.49574619999999,-0.3963118000000014
Camí de Montcada (imparell) - Alqueria Senent,transporte,39.5215874,-0.3865955000000011
Camí de Montcada (imparell) - Matador,transporte,39.515475,-0.38700599999999974
Camí de Montcada - Alqueria Paella,transporte,39.5100714,-0.3858232000000004
Camí de Montcada - Ctra. Daniel,transporte,39.50654070000001,-0.38406280000000026
Camí de Montcada - Poble Nou,transporte,39.50503059999999,-0.38380439999999977
Camí de Montcada - Ctra. Carpesa,transporte,39.50270170000001,-0.38270299999999885
Camí de Montcada (imparell) - Alemany,transporte,39.4965655,-0.3812282000000003
Burjassot - Màlaga,transporte,39.48376129999998,-0.38320730000000014
Constitució - Pla de la Saïdia,transporte,39.4830825,-0.37883529999999993
Constitució - Màlaga,transporte,39.48522319999999,-0.3787077000000001
Constitució - Sarrión,transporte,39.4872817,-0.377473700000001
Dr. Moliner - Arts Gràfiques,transporte,39.4761669,-0.3627922000000006
Burjassot - Dr. Peset Aleixandre,transporte,39.4883347,-0.3890689000000009
Bombas Gens,transporte,39.4854852,-0.38562989999999914
Sagunt,transporte,39.4862857,-0.37472310000000003
Sagunt - Sant Guillem,transporte,39.4843915,-0.3747475999999999
Campanar - Dr. Nicasi Benlloch,transporte,39.4881822,-0.38960010000000056
Dr. Nicasi Benlloch - General Avilés,transporte,39.48819289999999,-0.39057130000000023
Constitució - Xest,transporte,39.4893127,-0.3759976000000002
Constitució - Dr. Peset Aleixandre,transporte,39.491529699999994,-0.37445270000000014
Sagunt - Don Bosco,transporte,39.491567399999994,-0.3739750000000001
Sagunt - Pare Urbà,transporte,39.48898299999998,-0.3749745000000015
Menéndez Pidal (imparell) - Pare Ferrís,transporte,39.481485899999996,-0.3842922999999997
Escola Oficial d'Idiomes,transporte,39.4826453,-0.3814790999999998
Menéndez Pidal - Pasarel·la,transporte,39.4790367,-0.3900844000000015
Estació d'Autobusos,transporte,39.4798993,-0.38779800000000164
Dr. Nicasi Benlloch - Alcubles,transporte,39.48737129999999,-0.3887540000000016
Pare Ferris - Joaquím Ballester,transporte,39.48494059999999,-0.3862562000000014
Pla de la Saïdia (riu) - Constitució,transporte,39.482819199999994,-0.3795320000000008
Pont dels Serrans,transporte,39.48162199999999,-0.37537130000000035
Pont de Fusta,transporte,39.4808739,-0.3739555000000005
Guadalaviar - Sagunt,transporte,39.481919700000006,-0.37541210000000097
Museu de Belles Arts,transporte,39.479042,-0.37131610000000037
la Plata - Sapadors,transporte,39.455825299999994,-0.3655132000000012
Menéndez Pidal (parell) - Pare Ferrís,transporte,39.481643399999996,-0.3845608000000014
Estació d'Autobusos,transporte,39.4802093,-0.3876944999999999
El Pla de la Saïdia - Constitució,transporte,39.4828787,-0.37744260000000107
Escola Oficial d'Idiomes,transporte,39.48298249999999,-0.38120530000000064
Mossén Miguel Tarín (imparell) - Carretera de Paterna,transporte,39.4972873,-0.41611780000000154
Beniferri,transporte,39.491049299999986,-0.39950900000000006
Dr. Soriano Benlloch - Rafael Tenes Escrich,transporte,39.4995555,-0.41732829999999993
Mossén Miguel Tarín (imparell) - Miquel Agraït,transporte,39.49855,-0.4163268000000002
Pius XII - Campanar,transporte,39.4823567,-0.39339400000000113
Pius XII - Centre Comercial,transporte,39.47951729999999,-0.39132810000000123
Corts Valencianes - Davant Esc. Prof. Sant Josep,transporte,39.4867953,-0.3963848000000002
Campanar,transporte,39.4843959,-0.39469330000000147
Campanar - Joan Pau II,transporte,39.4800319,-0.3937178000000008
Campanar - Ricardo Micó,transporte,39.4858918,-0.3906880000000002
Campanar - Pius XII,transporte,39.480614700000004,-0.39322139999999944
Mercat de Campanar,transporte,39.477770799999995,-0.3947825999999995
Joaquim Ballester - Campanar,transporte,39.48187490000001,-0.39211760000000084
Joaquim Ballester (parell) - Ricardo Micó,transporte,39.4829421,-0.38975590000000027
Joaquim Ballester (imparell) - Ricardo Micó,transporte,39.482644699999994,-0.38975820000000094
Pintor Garnelo - Campament,transporte,39.502419999999994,-0.42009339999999984
Felipe Valls - Lluís Cano,transporte,39.501403599999996,-0.4190929999999999
Mossén Miguel Tarín (parell) - Carretera de Paterna,transporte,39.497550100000005,-0.4162252000000002
Fira València,transporte,39.5034747,-0.4264928000000007
Velòdrom Lluís Puig,transporte,39.501688800000004,-0.4262726000000003
Polvorí - Campament,transporte,39.50091599999998,-0.42530010000000107
Campament (imparell) - Joaquín Marín,transporte,39.50149989999999,-0.4227498000000004
Fira València,transporte,39.503293799999994,-0.4262303000000009
Benimàmet,transporte,39.5014281,-0.41867130000000025
Campament - Felipe Valls,transporte,39.502646899999995,-0.42026640000000004
Campament (parell) - Joaquín Marín,transporte,39.5013558,-0.4232609000000007
Polvorí - Sinarques,transporte,39.5008428,-0.42514480000000093
Pérez Galdós - Torres Torres,transporte,39.4719113,-0.39375339999999986
Pérez Galdós - Democràcia,transporte,39.47445870000001,-0.3955846999999998
Mestre Rodrigo - Manuel de Falla,transporte,39.4773834,-0.39771869999999965
Manuel de Falla - Professor López Ibor,transporte,39.47557629999999,-0.40127480000000065
Manuel de Falla - Mestre Rodrigo,transporte,39.476290799999994,-0.3977873000000012
Vall de la Ballestera (parell) - Mestre Rodrigo,transporte,39.4791756,-0.3981851
Pius XII - Centre Comercial,transporte,39.4792259,-0.39162320000000106
Pius XII - Bisbe Soler,transporte,39.48168950000001,-0.39341400000000026
Corts Valencianes - Esc. Prof. de Sant Josep,transporte,39.48695799999999,-0.39740200000000087
Corts Valencianes - l'Alt Maestrat,transporte,39.49385809999999,-0.4022853000000006
Joan XXIII - Periodista Gil Sumbiela,transporte,39.492637699999996,-0.3831620000000004
Democràcia - Velázquez,transporte,39.4734992,-0.4002667000000012
Pérez Galdós - Dr. Zamenhof,transporte,39.474613999999995,-0.3953298
Democràcia - Baladre,transporte,39.473995800000004,-0.3974170999999996
Pérez Galdós - Calixt III,transporte,39.46964859999999,-0.39178480000000016
Pérez Galdós - Mestre Guerrero,transporte,39.472440299999995,-0.39378990000000025
Jesús,transporte,39.45920149999999,-0.3843381000000014
Pérez Galdós - Conca,transporte,39.4649052,-0.3883981000000004
Pérez Galdós - Lladró i Mallí,transporte,39.462858999999995,-0.38728339999999983
Giorgeta - Ctra. D'Escrivà,transporte,39.457997299999995,-0.3839338000000019
Pérez Galdós - Olimpia Arozena Torres,transporte,39.470028400000004,-0.39240189999999936
Llorca - Pérez Galdós,transporte,39.4684833,-0.3920099000000003
Cid - Pere Maria Orts,transporte,39.46971990000001,-0.4141584999999996
Cid - Particular,transporte,39.46986969999998,-0.4115559000000009
Nou d'Octubre,transporte,39.470133199999985,-0.4055785
Cid - Passatge Vidal,transporte,39.46960969999999,-0.40320989999999907
Joan Baptista Comes - Antonio Machado,transporte,39.46720449999999,-0.41506910000000036
Avinguda del Cid,transporte,39.469726299999984,-0.41587790000000224
Mercat de Castilla,transporte,39.46537279999999,-0.4061684000000021
Cid - Hospital,transporte,39.4695652,-0.40986750000000044
Cid - Marconi,transporte,39.469253599999995,-0.4133128999999998
Hospital General,transporte,39.4685857,-0.40557769999999893
Colònia Esp. de Mèxic - Casa de la Misericòrdia,transporte,39.464553599999995,-0.4091121999999998
la Fontsanta,transporte,39.465784500000005,-0.4096477999999992
Brasil - Velázquez,transporte,39.4723623,-0.4002552000000007
Brasil - Francisco Moreno Usedo,transporte,39.47153029999999,-0.39765500000000054
Petxina - Racó d'Ademús,transporte,39.47352819999999,-0.4027088000000002
Parc de l'Oest - Germans Rivas,transporte,39.46839339999999,-0.3961241000000002
Cid - Burgos,transporte,39.4690011,-0.39984480000000144
Brasil - Artur Piera,transporte,39.4707191,-0.39518659999999983
Linares - Pérez Galdós,transporte,39.4689904,-0.39216640000000125
Tres Forques - Mare de Déu de la Cabeça,transporte,39.463730600000005,-0.39983529999999967
Tres Forques - Emili Lluch,transporte,39.463593800000005,-0.40303529999999943
Tres Forques - Churat i Saurí,transporte,39.4640574,-0.39177030000000046
Tres Forques (imparell) - Arxiduc Carles,transporte,39.463844599999995,-0.39694929999999984
Tres Forques - Xiva,transporte,39.464295299999996,-0.3894725000000015
Tres Forques - Pérez Galdós,transporte,39.46416989999999,-0.3889196000000006
Tres Forques - Mestre Bellver,transporte,39.4641369,-0.39337560000000055
Arxiduc Carles - Puebla de Valverde,transporte,39.45945689999999,-0.40106000000000064
Arxiduc Carles (parell) - Fra Juníper Serra,transporte,39.460953200000006,-0.39942579999999944
Arxiduc Carles - Músic Gomis,transporte,39.4588717,-0.40138210000000063
Camí Nou de Picanya - Tres Creus,transporte,39.45756579999999,-0.40325659999999935
Arquitecte Segura de Lago - Prof. Àngel Lacalle,transporte,39.45523909999999,-0.4041008000000002
Arxiduc Carles - Fra Juníper Serra,transporte,39.460963299999996,-0.3991412000000002
Mercat de Jesús,transporte,39.46020369999999,-0.3886993000000003
Hospital Verge del Consol,transporte,39.4618046,-0.3873074000000013
Cid - Josep Maestre,transporte,39.4690378,-0.40244180000000157
Central de Policia Local de València,transporte,39.4685854,-0.39993029999999924
Parc de l'Oest - Enguera,transporte,39.4678939,-0.3957661000000016
Arxiduc Carles - Xiva,transporte,39.4664295,-0.393420700000001
Arxiduc Carles - Enguera,transporte,39.4650571,-0.39492560000000076
Tres Forques (parell) - Arxiduc Carles,transporte,39.463992499999996,-0.3969799000000006
Tres Forques - Santa Cruz de Tenerife,transporte,39.46388560000001,-0.3995152000000004
Tres Forques - Josep Maestre,transporte,39.4637441,-0.40306520000000173
Tres Creus (carril bus) - Llombai,transporte,39.4641386,-0.4054581000000005
Tres Creus (carril bus) - Músic Ayllón,transporte,39.46703489999999,-0.4057825000000004
Arquitecte Segura de Lago - Dr. Rafael Bartual,transporte,39.4534201,-0.4029309999999998
José Andreu Alabarta - Mariano de Cavia,transporte,39.45262499999999,-0.40385479999999996
José Andreu Alabarta - Professor Àngel Lacalle,transporte,39.4542477,-0.40480950000000043
José Soto Micó - Alcalà de Xivert,transporte,39.43995220000001,-0.3889944999999995
Sant Vicent Màrtir (parell) - Arquebisbe Olaechea,transporte,39.44362809999999,-0.3875266000000006
Sant Vicent Màrtir - Enginyer Josep Sirera,transporte,39.4453169,-0.38687840000000107
Creu Coberta,transporte,39.44823040000001,-0.3858127000000006
Sant Vicent Màrtir - Joaquín Navarro,transporte,39.4527763,-0.3846825000000004
Sant Vicent Màrtir - Dolores Alcaide,transporte,39.4557929,-0.3840693000000001
Gaspar Aguilar - Costa i Borràs,transporte,39.45587520000001,-0.39065380000000005
Josep Soto Micó - Síndic Mojolí,transporte,39.4401253,-0.3887578000000006
Real de Madrid - Concepción Arenal,transporte,39.43493749999999,-0.39080219999999977
Real de Madrid - Hellín,transporte,39.4338996,-0.39121800000000023
la Torre,transporte,39.4273625,-0.3935265000000002
Real de Madrid (parell) - Eduardo Dato,transporte,39.43003670000001,-0.3928824000000001
Real de Madrid - Algar del Palància,transporte,39.433269900000006,-0.39159379999999955
Real de Madrid - Carretera d'Alba,transporte,39.4348047,-0.3909914000000001
Gaspar Aguilar - Jesús,transporte,39.459276,-0.38856159999999923
Conca - Mossén Fenollar,transporte,39.461727999999994,-0.3903089000000006
Conca - Pérez Galdós,transporte,39.463753,-0.3885917000000012
Pius XI - Manuel Simó,transporte,39.4598767,-0.39216609999999974
Centre de Salut Pare Jofré,transporte,39.460586,-0.3899907000000003
Humanista Mariner - Beat Nicolau Factor,transporte,39.46177639999999,-0.3925989999999997
Hospital Dr. Peset,transporte,39.4525061,-0.3929101000000003
Gaspar Aguilar - Calvo Acacio,transporte,39.454167299999995,-0.3918004000000009
Cementeri,transporte,39.4480624,-0.3962233000000009
Gaspar Aguilar (imparell) - Dr. Tomàs Sala,transporte,39.45029999999999,-0.39436710000000014
Crematori Municipal,transporte,39.44911090000001,-0.39541800000000055
Patraix,transporte,39.4568731,-0.3902026000000006
Gaspar Aguilar - Montesa,transporte,39.454162299999986,-0.3919910000000013
Malilla (parell) - Illa Formentera,transporte,39.447007799999994,-0.3801115000000006
Malilla - Pianista Empar Iturbi,transporte,39.4543088,-0.37829290000000004
Malilla (parell) - Illa Cabrera,transporte,39.448847799999996,-0.37965900000000086
Malilla - Oltà,transporte,39.452519300000006,-0.3787509000000012
Fonteta Sant Lluís - Dr. Waksman,transporte,39.4557145,-0.37158420000000036
Fonteta Sant Lluís - Lleó XIII,transporte,39.45754869999999,-0.37174720000000117
Fonteta Sant Lluís - Algímia d'Alfara,transporte,39.45167730000001,-0.37074700000000055
Fonteta Sant Lluís - Bèrnia,transporte,39.4538274,-0.3715989000000013
Joaquin Benlloch - Oltà,transporte,39.4523029,-0.3756641999999997
Joaquín Benlloch - Illa Cabrera,transporte,39.4497363,-0.37382550000000014
Pianista Empar Iturbi - Ausiàs March,transporte,39.45501229999999,-0.3751466000000004
Centre de Salut Eng. Joaquín Benlloch,transporte,39.4540713,-0.3769101000000007
Sant Vicent Màrtir - Millars,transporte,39.45674890000001,-0.38364440000000005
Peris i Valero - Ausiàs March,transporte,39.4572101,-0.3748184999999997
Peris i Valero - Sapadors,transporte,39.4588749,-0.37086359999999985
Peris i Valero - Bisbe Jaume Pérez,transporte,39.46029800000001,-0.36748099999999984
Sant Vicent Màrtir (imparell) - Arquebisbe Olaechea,transporte,39.4436634,-0.3873518999999999
Creu Coberta,transporte,39.4472639,-0.3859496999999997
Sant Vicent Màrtir - Altamira,transporte,39.4491457,-0.3852835000000009
Maties Perelló - Mestre Aguilar,transporte,39.4609254,-0.36925559999999896
Els Centelles - Sueca,transporte,39.459317399999996,-0.37304389999999976
Parc Central,transporte,39.4578378,-0.37650099999999975
Peris i Valero - Pere Aleixandre,transporte,39.46113179999999,-0.36552540000000106
Mestre Racional - Regne de València,transporte,39.4634324,-0.36331960000000046
Maties Perelló - Lluís de Santàngel,transporte,39.46212789999999,-0.3664407000000006
Centre d'Especialitats Montolivet,transporte,39.46139749999999,-0.36234839999999996
Centre d'Especialitats Montolivet,transporte,39.4615193,-0.36260210000000054
Escultor J. Capuz (imparell) - la Plata,transporte,39.45829100000001,-0.3602456999999998
Escultor J. Capuz (imparell) - Pere Aleixandre,transporte,39.4598674,-0.36129580000000033
la Plata - Amado Granell Mesado,transporte,39.4569804,-0.3628165999999998
Plaça de Cánovas,transporte,39.46848899999999,-0.3658186000000007
Escultor J. Capuz (parell) - Pere Aleixandre,transporte,39.4603469,-0.3618095000000008
Escultor J. Capuz (parell) - la Plata,transporte,39.45859909999999,-0.3606158000000004
Germans Maristes - José Durán Martínez,transporte,39.4535973,-0.3632467000000003
Poliesportiu Fta. Sant Lluís,transporte,39.45250269999999,-0.3658215
Amado Granell Mesado (parell) - la Plata,transporte,39.4570099,-0.3636915000000005
Amado Granell Mesado (parell) - Arabista Ambrosio Huici,transporte,39.4555005,-0.3626439000000019
Germans Maristes - Institut Jordi de Sant Jordi,transporte,39.4534371,-0.36302849999999937
Amado Granell Mesado (imparell) - Arabista Ambrosio Huici,transporte,39.4557254,-0.36245489999999964
Germans Maristes (parell) - Fonteta Sant Lluís,transporte,39.451085199999994,-0.3685426999999991
Poliesportiu Fta. Sant Lluís,transporte,39.4519863,-0.36643750000000136
Puigcampana - Fonteta Sant Lluís,transporte,39.4550247,-0.37113190000000107
Bèrnia - Ausiàs March,transporte,39.45401839999999,-0.37276600000000126
Ausiàs March - Algímia d'Alfara,transporte,39.4516336,-0.3717197999999992
Amado Granell Mesado (parell) - Lluís Oliag,transporte,39.4597071,-0.3656087000000012
Sapadors - Sant Gregori,transporte,39.459073999999994,-0.3689130999999996
Sapadors - Dos d'Abril,transporte,39.45741089999999,-0.3680509999999994
Sapadors,transporte,39.455506899999996,-0.36685519999999994
Fonteta de Sant Lluís,transporte,39.4417963,-0.3684990000000004
Gravador Jordán - Alabau i Arce,transporte,39.4441902,-0.36776779999999987
Fonteta Sant Lluís - Riu Sec,transporte,39.4458428,-0.3671104999999999
Fonteta Sant Lluís - Ebenista Caselles,transporte,39.4502916,-0.3697966000000007
Fonteta Sant Lluís - Germans Maristes,transporte,39.450299599999994,-0.36965080000000117
Fonteta Sant Lluís (imparell) - Àngel Villena,transporte,39.448518799999995,-0.3683829000000003
Gravador Jordán - Riu Sec,transporte,39.4461457,-0.3669870999999996
Gravador Jordán - Escultor Pastor,transporte,39.4443194,-0.36751660000000047
Plaça de Cánovas,transporte,39.4681528,-0.3655537999999998
Cadis - Dénia,transporte,39.463629,-0.37490909999999994
Cadis - Puerto Rico,transporte,39.4619892,-0.3737517999999993
Cadis - dels Centelles,transporte,39.45934999999999,-0.37189600000000067
Mercat de Russafa,transporte,39.4617583,-0.37052700000000016
Prefectura superior de Policia,transporte,39.46854890000001,-0.38404680000000024
Ramón i Cajal (imparell) - Jesús,transporte,39.46712169999999,-0.38303670000000084
Germanies - Cuba,transporte,39.46319900000001,-0.37737650000000067
Germanies - Sevilla,transporte,39.46440889999999,-0.37460890000000124
Marqués del Túria - Mestre Gozalbo,transporte,39.4665029,-0.3694773000000002
Marqués del Túria - Joaquín Costa,transporte,39.46742379999999,-0.36727779999999977
Túria,transporte,39.476914999999984,-0.39002830000000127
Jardí Botànic,transporte,39.474943200000006,-0.38801139999999995
Quart - Ferran el Catòlic,transporte,39.474890499999994,-0.3894035000000006
Jardí Botànic,transporte,39.4753686,-0.38892049999999956
Ferran el Catòlic - Gabriel Miró,transporte,39.47262680000001,-0.38695339999999906
Hospital General,transporte,39.469537,-0.40574020000000016
Àngel Guimerà,transporte,39.4704999,-0.3851654999999991
Àngel Guimerà,transporte,39.470042299999996,-0.3851288000000002
Marqués del Túria - Hernán Cortés,transporte,39.4664217,-0.37073920000000077
Marqués del Túria - Jorge Juan,transporte,39.4677385,-0.3676198000000007
Germanies - Castelló,transporte,39.46446600000001,-0.3752109999999999
Marqués del Túria - Russafa,transporte,39.4652377,-0.3735288999999992
Ramón i Cajal (parell) - Jesús,transporte,39.4676245,-0.38278340000000005
Plaça d'Espanya,transporte,39.46523830000001,-0.38107550000000034
Ferran el Catòlic - Juan de Mena,transporte,39.472328099999984,-0.38614330000000124
Àngel Guimerà,transporte,39.47021159999999,-0.3846385999999996
Sant Francesc de Borja - Jesús,transporte,39.46595159999999,-0.38467689999999993
Plaça Amèrica,transporte,39.469336,-0.36427570000000065
Aiora - Xiva,transporte,39.46645959999999,-0.39201130000000123
Sant Josep de Calassanç - Alberic,transporte,39.466513199999994,-0.38779319999999984
Sant Josep de la Muntanya - Pérez Galdós,transporte,39.47439349999999,-0.3942395000000007
Aiora - Mariano Ribera,transporte,39.464686599999986,-0.39336040000000083
Centre de Salut Joan Llorens,transporte,39.4737929,-0.3919372000000014
Quart - Terol,transporte,39.47456449999999,-0.3913457000000003
Conca - Alzira,transporte,39.4684126,-0.3847739000000002
Àngel Guimerà - Bon Ordre,transporte,39.469837399999996,-0.38811510000000016
Albacete - Mestre Sosa,transporte,39.46138409999999,-0.38548030000000055
Conca - Bisbe Amigó,transporte,39.4660431,-0.3867006000000006
Jesús - Sant Francesc de Borja,transporte,39.46616199999999,-0.3835638999999998
Jesús - Pintor Segrelles,transporte,39.4637561,-0.3856051999999996
Sant Vicent Màrtir - Giorgeta,transporte,39.4604062,-0.3827345999999996
Centre de Salut Gil i Morte,transporte,39.461818,-0.38236360000000125
Ciscar - Comte d'Altea,transporte,39.46713989999999,-0.3663347000000001
Ciscar - Borriana,transporte,39.4653755,-0.36512309999999953
Císcar - Mestre Racional,transporte,39.4635078,-0.36382540000000174
Joaquín Costa - Regne de València,transporte,39.463519700000006,-0.3653970000000013
Joaquín Costa - Comte d'Altea,transporte,39.46598349999999,-0.36712150000000127
Pintor Salvador Abril - Mestre J. Serrano,transporte,39.4637124,-0.3708829000000001
Regne de València - Gregori Mayans,transporte,39.4648385,-0.37255170000000004
Regne de València - Mestre Gozalbo,transporte,39.463803299999995,-0.367685000000001
Regne de València - Peris i Valero,transporte,39.46272470000001,-0.3638000999999992
Regne de València - Lluís Santàngel,transporte,39.46387409999999,-0.36900789999999944
Regne de València - Russafa,transporte,39.46472949999999,-0.3730549000000015
Sant Valero,transporte,39.4633759,-0.3719505000000007
Marqués de Dosaigües,transporte,39.47328850000001,-0.3743600000000001
Pascual i Genís - Roger de Llòria,transporte,39.4684916,-0.3739321999999995
Fèlix Pizcueta - Ciril Amorós,transporte,39.4659621,-0.3724540000000001
Institut Lluís Vives,transporte,39.468578399999984,-0.37704940000000076
Plaça Espanya,transporte,39.466000099999995,-0.3812674000000003
Sant Vicent Màrtir - Espanya,transporte,39.46652840000001,-0.3809645999999986
Biblioteca Pública,transporte,39.4714563,-0.3797860999999991
MuVIM,transporte,39.4701389,-0.38018909999999956
Jesús - Pare Jofré,transporte,39.46805650000001,-0.3818807999999995
Quart - Guillem de Castro,transporte,39.4756528,-0.3848686999999997
Mercat Central,transporte,39.4735175,-0.37969039999999954
IVAM,transporte,39.4801031,-0.38297480000000084
Encarnació - Guillem de Castro,transporte,39.4739158,-0.38385459999999993
La Bene,transporte,39.4777834,-0.3837042000000003
Torres de Quart,transporte,39.4749852,-0.3839651999999998
Colón,transporte,39.46994990000001,-0.3709567999999995
Estació del Nord,transporte,39.46750769999999,-0.3764674000000007
Colón - Pascual i Genís,transporte,39.468344599999995,-0.37322280000000124
Plaça del Temple,transporte,39.4769311,-0.3712207000000007
Torres dels Serrans,transporte,39.4790603,-0.3751951000000013
Colón - Porta de la Mar,transporte,39.4715054,-0.3691847000000007
Amèrica - Marqués del Túria,transporte,39.469570600000004,-0.3648819999999997
Peris i Valero - Pintor Salvador Abril,transporte,39.4602319,-0.3681196000000001
Amado Granell Mesado (imparell) - Lluís Oliag,transporte,39.45964259999999,-0.3652372000000009
Fonteta Sant Lluís (parell) - Àngel Villena,transporte,39.4484719,-0.36852720000000183
Finlàndia - General Gil Dolz,transporte,39.47273090000001,-0.3603119
Pintor Salvador Abril - Maties Perelló,transporte,39.4620474,-0.3696976000000009
Misser Mascó - Dr. Moliner,transporte,39.47552129999999,-0.3625898999999999
Misser Mascó - Montfort,transporte,39.4765249,-0.36610510000000046
Carrera del Riu - Trav. Pinedo a la Mar,transporte,39.421413,-0.34046179999999976
Carrera del Riu - Mossén Cuenca,transporte,39.421666,-0.3404014000000009
Carrera del Riu - Camí dels Anouers,transporte,39.43202209999999,-0.3431292000000005
Carrera del Riu (parell) - Canal,transporte,39.423529699999996,-0.3410261000000014
la Plata - Poeta Miguel Hernández,transporte,39.4556349,-0.365389299999999
Carrera del Riu - Entrada Sanques,transporte,39.43565589999999,-0.34368640000000084
Amado Granell Mesado (imparell) - la Plata,transporte,39.457140599999995,-0.3634559000000014
Estadi de Mestalla,transporte,39.4753863,-0.35651919999999954
Cases de Bàrcena III -,transporte,39.5222629,-0.3573942
Cases de Bàrcena II -,transporte,39.52056170000001,-0.35862210000000055
Carrera del Riu - Casa Andrés,transporte,39.435225,-0.3434994000000013
Carrera del Riu - Entrada casa Rosquilla,transporte,39.4322902,-0.3430499000000003
Carrera del Riu (imparell) - Canal,transporte,39.4240222,-0.3410084999999991
Uruguai (imparell) - Jeroni Munyós,transporte,39.459696900000004,-0.3859843999999998
Jaime Beltrán - Misser Rabassa,transporte,39.4566193,-0.38797920000000097
Trànsits,transporte,39.48934170000001,-0.3867644999999994
Cases de Bàrcena V -,transporte,39.5206354,-0.35874920000000043
Cases de Bàrcena IV -,transporte,39.5220294,-0.357718400000001
Mercat de Colón,transporte,39.4693242,-0.36786949999999974
Vall de la Ballestera - Pius XII,transporte,39.48114750000001,-0.39363889999999996
Hernán Cortés - Ciril Amorós,transporte,39.46710350000001,-0.3706689000000004
Estació del Nord - Sant Pau,transporte,39.46854110000001,-0.3782104000000002
Estació del Nord - Castelló,transporte,39.466210099999984,-0.3767606999999998
Russafa - Ciril Amorós,transporte,39.465876299999984,-0.3742645999999996
Marqués de Sotelo,transporte,39.46882339999999,-0.37678520000000043
Plaça de l'Ajuntament,transporte,39.4700909,-0.37580970000000014
Roger de Llòria - Colón,transporte,39.4691273,-0.3724271000000005
Pintor Sorolla,transporte,39.4713533,-0.37141840000000087
Clariano - Albalat dels Tarongers,transporte,39.4778259,-0.35127150000000035
Clariano - Palància,transporte,39.4778186,-0.35161240000000027
Misser Mascó - Dr. Rodríguez Fornós,transporte,39.47484909999999,-0.3602437000000002
Amadeu de Savoia - Suècia,transporte,39.4730307,-0.35949150000000174
Catalunya - Santa Cruz de la Zarza,transporte,39.47890780000001,-0.35412720000000053
Regne de València - Ciscar,transporte,39.462826699999994,-0.3631883000000002
Ernest Ferrer - Aragó,transporte,39.4723579,-0.3570075999999994
Plaça d'Espanya,transporte,39.4659604,-0.38219430000000026
Mediterrània - Vicent Brull,transporte,39.4678486,-0.33231620000000006
Eugènia Viñes - Mare de Déu del Sufragi,transporte,39.4668871,-0.3253049000000008
Ciutat Administrativa 9 d'Octubre,transporte,39.471031399999994,-0.40506460000000066
Estadi de Mestalla,transporte,39.47495759999999,-0.3559208000000008
Pere Cabanes - Mont Carmel,transporte,39.4954214,-0.3728028999999998
Aragó - Saragossa,transporte,39.4686301,-0.35994389999999926
Aragó - Ernest Ferrer,transporte,39.472807499999995,-0.35697970000000023
Pere Cabanes - Sant Doménec Savio,transporte,39.4949615,-0.37533220000000095
Pere Cabanes - Bisbe Laguarda,transporte,39.4942419,-0.37878290000000053
Equador - Pintor Matarana,transporte,39.496078999999995,-0.392778200000001
Félix del Río - Camí de Montcada,transporte,39.4919429,-0.3797120000000001
Aragó,transporte,39.4726577,-0.3577340000000001
Sant Vicent de Paül - Peñíscola,transporte,39.49087089999999,-0.37059000000000036
Aragó - Xile,transporte,39.4701417,-0.3583009000000007
Germans Villalonga - Enric Navarro,transporte,39.4858179,-0.35711160000000075
Vicent Zaragozà,transporte,39.48399719999998,-0.3575735000000008
Ramón Asensio - Guàrdia Civil,transporte,39.4817398,-0.3592238000000003
Uruguai - Misser Rabassa,transporte,39.4570119,-0.38702930000000035
Carters - Llanera de Ranes,transporte,39.45267619999999,-0.3886835000000011
Carters - Calvo Acacio,transporte,39.4500762,-0.38926509999999986
Carters (imparell) - Primer de Maig,transporte,39.448079199999995,-0.38954920000000187
Carters (parell) - Primer de Maig,transporte,39.44820309999999,-0.3896677000000005
Carters - Mossén Febrer,transporte,39.45030779999999,-0.3890640000000008
Plaça de l'Ajuntament - Periodista Azzati,transporte,39.46942769999999,-0.3776437999999996
Centre de Salut Benimaclet,transporte,39.483191399999995,-0.35861460000000034
Mistral - Murta,transporte,39.48593240000001,-0.35784670000000135
Jesús Morante Borràs (I) -,transporte,39.450939899999995,-0.34538580000000113
Jesús Morante Borràs (II) -,transporte,39.449432,-0.3444671000000011
Jesús Morante Borràs (III) -,transporte,39.448019099999996,-0.34398500000000054
La Punta,transporte,39.44131159999999,-0.34386669999999964
Jesús Morante Borràs (IV) -,transporte,39.44366350000001,-0.3439132000000006
Jesús Morante Borràs (VII) -,transporte,39.443782,-0.34378129999999973
Jesús Morante Borràs (VI) -,transporte,39.44173889999999,-0.3437879000000002
Jesús Morante Borràs (IX) -,transporte,39.44939209999999,-0.3442868000000003
Jesús Morante Borràs (VIII) -,transporte,39.4478653,-0.3438424000000006
Albereda,transporte,39.474232699999995,-0.3650589
Jesús Morante Borràs (X) -,transporte,39.4509664,-0.3452427000000004
Palau de Justícia,transporte,39.472014400000006,-0.36921030000000077
Pla del Real,transporte,39.476242500000005,-0.36667330000000176
Tírig - Guàrdia Civil,transporte,39.482011299999996,-0.35921749999999975
Aragó - Finlàndia,transporte,39.47093559999999,-0.3585971000000011
Cerdà de Tallada - Colón,transporte,39.4715774,-0.36985769999999885
Arxiduc Carles (imparell) - Tres Forques,transporte,39.463519299999994,-0.39636590000000044
Uruguai - Veneçuela,transporte,39.4556394,-0.38706979999999985
Hospital Malva-rosa,transporte,39.4768899,-0.32460069999999924
Passeig Marítim - Séquia de la Cadena,transporte,39.473549600000005,-0.32463380000000075
Passeig Marítim - Pescadors,transporte,39.47020270000001,-0.32471049999999957
Passeig Marítim - Mediterrània,transporte,39.46795869999999,-0.32472710000000105
Eugènia Viñes (parell) - Marcos Sopena,transporte,39.463853,-0.32440160000000057
Velòdrom Lluís Puig,transporte,39.50226270000001,-0.42641320000000105
Camí de Montcada - Camí Alqueria de Marquet,transporte,39.51220169999999,-0.3863307999999996
Centre de Salut Salvador Allende,transporte,39.4946913,-0.37262110000000026
Centre de Salut Fonteta,transporte,39.44250769999999,-0.36816180000000126
Germans Maristes (imparell) - Fonteta Sant Lluís,transporte,39.4516243,-0.3678796999999988
Tres Creus - Tres Forques,transporte,39.4627928,-0.4054831999999994
Tres Creus - Segona República Espanyola,transporte,39.45862890000001,-0.40277650000000115
Tres Creus - Dr. Pérez Feliu,transporte,39.4605547,-0.4039729000000004
Comissaria Policia - Marítim,transporte,39.463089,-0.32864059999999967
Foc - Amadeu Desfilis,transporte,39.499911499999996,-0.39458170000000087
Eugènia Viñes - Mare de Déu del Sufragi,transporte,39.466955999999996,-0.3252412000000013
Eugènia Viñes (imparell) - Marcos Sopena,transporte,39.4636065,-0.32505339999999944
Isabel de Villena - Vicent la Roda,transporte,39.47896610000001,-0.32585749999999936
Centre de Salut Malva-rosa,transporte,39.4768987,-0.3258492000000008
Passeig Marítim - Mendizábal,transporte,39.48356240000001,-0.32531540000000014
Isabel de Villena - Font d'en Carrós,transporte,39.48115820000001,-0.32580039999999993
Passeig Marítim - Vicent la Roda,transporte,39.47893009999999,-0.3246298000000001
Passeig Marítim - Font d'en Carrós,transporte,39.4811529,-0.32469610000000093
Dr. Manuel Candela (imparell) - Rodríguez de Cepeda,transporte,39.46833019999999,-0.3503042999999994
Dr. Manuel Candela (imparell) - Sants Just i Pastor,transporte,39.4704814,-0.34944060000000093
Tomàs Montañana (parell) - Astúries,transporte,39.4634868,-0.35228079999999984
Dr. Manuel Candela (imparell) - Port,transporte,39.4660614,-0.3512452000000002
Dr. Manuel Candela (parell) - Sants Just i Pastor,transporte,39.47033729999998,-0.34913119999999914
Dr. Manuel Candela (parell) - Port,transporte,39.466011699999996,-0.3509044000000005
Dr. Manuel Candela (imparell) - Blasco Ibáñez,transporte,39.47300789999999,-0.34836990000000023
Ramon Llull - García Donato,transporte,39.476952999999995,-0.3467782000000005
Tomàs Montañana (imparell) - Astúries,transporte,39.463259900000004,-0.3519967000000006
Ramon Llull - Bernat Fenollar,transporte,39.4770048,-0.34636460000000086
Malilla (parell) - Bernat Descoll,transporte,39.450480999999996,-0.3792545000000001
Catalunya - Clariano,transporte,39.48083539999999,-0.35181700000000043
Ferrer i Bignè - Clavells,transporte,39.527643999999995,-0.3858038999999997
Ferrer i Bigné - Santíssima Creu,transporte,39.5297371,-0.3856188999999994
Ferrer i Bigné - Nelo el Fariner,transporte,39.530820799999994,-0.3854096000000008
Camí de Montcada - Gasolinera,transporte,39.51229459999999,-0.38646430000000065
Tossal del Rei,transporte,39.4961353,-0.37226429999999977
Blasco Ibáñez (parell) - José María Haro,transporte,39.47072849999999,-0.33814720000000004
Palma de Gandia - Venta del Moro,transporte,39.529611200000005,-0.38407579999999997
Sant Doménec Savio - Josep Esteve,transporte,39.496086700000006,-0.37551859999999987
Pere Patrici Mey - Felip Rinaldi,transporte,39.492522300000005,-0.37711480000000147
Pintor Jacomart - Comte de Torrefiel,transporte,39.4965271,-0.3771522000000008
Músic Espí - Gravador Fabregat,transporte,39.4970224,-0.3744233000000014
Comte de Torrefiel - Mestre Marçal,transporte,39.49325329999999,-0.3759371000000019
Comte de Torrefiel - Josep Esteve,transporte,39.4958627,-0.37684100000000037
Comte de Torrefiel - Riu Bidasoa,transporte,39.4980592,-0.3773412000000011
Mercat de Torrefiel,transporte,39.49792459999999,-0.37620210000000015
Carrer de la Pau,transporte,39.473158699999985,-0.37216930000000065
Tetuan,transporte,39.474003599999996,-0.3699158000000002
Estació del Nord - Bailén,transporte,39.467249300000006,-0.37771390000000066
Antic Hospital La Fe,transporte,39.4843586,-0.39141510000000057
Conselleria d'Educació,transporte,39.48389730000001,-0.39192909999999975
Comte de Salvatierra - Colón,transporte,39.471083699999994,-0.36908730000000106
Mediterrània - Reina,transporte,39.4677449,-0.32917630000000087
Mediterrània - Dr. Lluch,transporte,39.467571499999984,-0.3285675000000006
Blasco Ibañez - Dr. Moliner,transporte,39.4781686,-0.36172930000000125
Lliri Blau - Mestre Ventura Pascual,transporte,39.4869827,-0.3570256000000006
Cid - Aiora,transporte,39.4672539,-0.3918687000000009
Teatre Principal,transporte,39.470854,-0.3742754000000005
Pont de l'Exposició,transporte,39.473814999999995,-0.36443070000000166
Mestre Rodrigo - Marqués de Sant Joan,transporte,39.4774157,-0.3973310999999998
Campus Tarongers,transporte,39.4793922,-0.34526710000000044
Torrefiel,transporte,39.49854,-0.37724140000000095
Espinosa - Ferran el Catòlic,transporte,39.472122199999994,-0.3843959999999999
Marqués de Sant Joan - Campanar,transporte,39.47869949999999,-0.3952438999999997
Mercat de Castilla,transporte,39.46622649999999,-0.40644300000000194
Primat Reig - Ministre Luis Mayans,transporte,39.48973529999999,-0.37097360000000024
Hospital General,transporte,39.46833600000001,-0.4065961999999999
Monestir de Poblet - Centre Comercial,transporte,39.48498670000001,-0.39593439999999946
Pintor Jacomart - Alcanyís,transporte,39.49592379999999,-0.3798474000000005
Facultat de Ciències Socials,transporte,39.4794347,-0.34566910000000123
Àngel Guimerà - Ferran el Catòlic,transporte,39.4703736,-0.38450620000000035
Eugènia Viñes - Passeig de Neptú,transporte,39.46546799999999,-0.3246281000000004
Les Arts,transporte,39.45676159999999,-0.3567424000000019
Comte de Torrefiel - Escultor Piquer,transporte,39.4922213,-0.3755682000000002
Les Arts,transporte,39.4570932,-0.3562064999999995
Blasco Ibáñez (imparell) - José María Haro,transporte,39.4712213,-0.33730190000000093
Dr. Peset Aleixandre - Felip Rinaldi,transporte,39.49169799999999,-0.37616170000000004
General Avilés - Miguel Servet (parell),transporte,39.48693109999999,-0.39387190000000005
General Avilés - Dr. Nicasi Benlloch,transporte,39.4881367,-0.39113029999999965
Tres Creus - dels Hostalers,transporte,39.46024609999999,-0.40392640000000024
Tres Creus - Arxiduc Carles,transporte,39.4573185,-0.4021412000000003
Dolores Marqués - Reverend José María Pinazo,transporte,39.4866656,-0.36288589999999904
Dolores Marqués - Assagador d'Alboraia,transporte,39.4882477,-0.36207150000000027
Primat Reig - Xàbia,transporte,39.4790184,-0.35657059999999974
Palau de l'Exposició,transporte,39.473652599999994,-0.36203730000000095
Hospital General - Urgències,transporte,39.4669621,-0.4063526999999996
Camí Nou de Picanya - Arquitecte Segura de Lago,transporte,39.4565409,-0.4039322000000004
Orriols - Sant Miquel dels Reis,transporte,39.49695030000001,-0.3691577000000009
Dolores Marqués - Benicarló,transporte,39.4856226,-0.36343720000000096
Almassora - Pintor Vilar,transporte,39.4831166,-0.3726513999999995
Punta al Mar (parell) - Canal,transporte,39.445108600000005,-0.337040200000001
Punta al Mar (parell) - Riu,transporte,39.44546869999999,-0.33965430000000096
Tres Creus (central) - Pare Esteban Pernet,transporte,39.46740489999999,-0.4062081000000001
Cid (via de servici) - Alejandro Volta,transporte,39.4691775,-0.4148055999999997
Pare Esteban Pernet - Centre Comercial,transporte,39.467047699999995,-0.4127896000000009
Pare Esteban Pernet - Misericòrdia,transporte,39.46717210000001,-0.4097966999999997
Punta al Mar (imparell) - Riu,transporte,39.4455418,-0.33955420000000014
Punta al Mar (imparell) - Canal,transporte,39.4452152,-0.33731610000000034
Serradora - Poliesportiu,transporte,39.46667729999999,-0.3350372000000007
Hospital Clínic - Facultat Medicina,transporte,39.47870489999998,-0.3639690999999999
Camí del Canal (imparell) - Guitarrista Tàrrega,transporte,39.447196699999985,-0.3354276000000003
Poliesportiu Malilla,transporte,39.4517865,-0.37451330000000105
Oltà - Ausiàs March,transporte,39.453305799999995,-0.37380780000000086
la Plata - Fonteta Sant Lluís,transporte,39.452943499999996,-0.3717810000000012
Parc Central de Bombers,transporte,39.454114100000005,-0.36894410000000094
Sant Vicent Màrtir - Mossén Febrer,transporte,39.4509579,-0.3850526000000002
Sant Vicent Màrtir - Almudaina,transporte,39.45299249999999,-0.3844684000000005
la Plata - Alberola,transporte,39.454345499999995,-0.3691169000000007
la Plata - Ausiàs March,transporte,39.4532329,-0.3718125000000001
Regne de Valencia (imparell) - Alcalde Reig,transporte,39.4623689,-0.3611015999999997
Regne de València (parell) - Alcalde Reig,transporte,39.46209439999999,-0.3608670000000017
Tomàs Montañana - França,transporte,39.460915299999996,-0.35293259999999993
la Llum,transporte,39.46845379999999,-0.41718369999999966
la Carrasca,transporte,39.4799166,-0.3447605
Tomàs Montañana - Albereda,transporte,39.46111409999999,-0.3532715000000003
Blanqueria - Pare d'Òrfens,transporte,39.480398,-0.3778413000000008
Bon Recés - Florista,transporte,39.49040810000001,-0.3924679000000007
Garbí,transporte,39.4918816,-0.3938845999999995
Florista - Carrasqueta,transporte,39.4938109,-0.39594840000000076
Florista,transporte,39.4955324,-0.3974621000000002
Dr. Nicasi Benlloch - Emili Nadal,transporte,39.488874200000005,-0.3920996
Teatre Flumen,transporte,39.48307619999999,-0.3849479000000008
Almassora - Argenter Suàrez,transporte,39.48615259999999,-0.37069890000000016
Tres Creus - Llombai,transporte,39.4646027,-0.40534130000000035
Manuel Carboneres - Sant Francesc de Paula,transporte,39.4459545,-0.3309617
Na Jordana,transporte,39.48107759999999,-0.38103350000000125
Pont de les Drassanes,transporte,39.4549994,-0.3299295000000009
Editor Manuel Aguilar - Guillem Sorolla,transporte,39.4727008,-0.38052549999999996
Mercat Central - Beata,transporte,39.472592999999996,-0.37984639999999975
Andreu Alfaro - Louis Braille,transporte,39.4972896,-0.39467290000000016
Palmaret - Montcada,transporte,39.51769829999999,-0.38633230000000035
Camp de Túria (imparell) - Corts Valencianes,transporte,39.493919099999985,-0.403648700000001
Ciutat de l'Artista Faller,transporte,39.5005481,-0.3932625000000008
Corts Valencianes - Palau de Congressos,transporte,39.4942269,-0.40179859999999956
Camp de Túria (parell) - Corts Valencianes,transporte,39.4941798,-0.40403200000000095
Molinell (parell) - Alboraia,transporte,39.4849816,-0.36950240000000106
Palmaret - Rosa dels Vents (davant),transporte,39.51614440000001,-0.38132960000000066
Tarongers - Facultat de Magisteri,transporte,39.480165499999984,-0.34716970000000036
Tarongers - Junt Entrada Universitats,transporte,39.48072359999999,-0.34766020000000164
Albalat dels Tarongers - Vinalopó,transporte,39.4783129,-0.3476784999999988
Sants Just i Pastor - Escultor Esteve Edo,transporte,39.4669114,-0.3389248000000005
Aiora,transporte,39.4681256,-0.3430884000000003
Aiora,transporte,39.46817119999999,-0.3426395000000003
Sants Just i Pastor - Serradora,transporte,39.4663623,-0.33708720000000114
Sants Just i Pastor - José María Haro,transporte,39.46733460000001,-0.3396847000000009
Estació del Nord - Guillem de Castro,transporte,39.4685317,-0.3805249000000005
La Malva-rosa - Fuerteventura,transporte,39.4811198,-0.3281143000000012
Camp de Túria - Mestre Rodrigo,transporte,39.4930372,-0.4066901
França - Albereda,transporte,39.4615038,-0.3565442999999996
Albereda - Pont del Regne,transporte,39.46095979999999,-0.3567093000000004
Malilla (imparell) - Illa Formentera,transporte,39.446728900000004,-0.37997089999999983
Malilla (imparell) - Illa Cabrera,transporte,39.449401599999995,-0.37936760000000025
Malilla (imparell) - Bernat Descoll,transporte,39.45093029999999,-0.3789381999999999
Pius IX - Salvador Perles,transporte,39.44326819999999,-0.3937927000000001
Pius IX - Cabanilles,transporte,39.44518719999999,-0.3930478000000014
Accés Cementeri,transporte,39.445772,-0.39682790000000073
Tanatori Municipal,transporte,39.44300820000001,-0.39799640000000047
Albereda - Illes Canàries,transporte,39.467999899999995,-0.3604670000000005
Jacinto Benavente - Peris i Valero,transporte,39.46346510000001,-0.3612578999999998
Jacinto Benavente - Borriana,transporte,39.4662198,-0.3627622999999999
Petxina - Túria,transporte,39.4792479,-0.38506920000000006
Tres Creus - Prínceps de Mònaco,transporte,39.4646583,-0.40627920000000084
Tirso de Molina - Pius XII,transporte,39.47855439999999,-0.39237419999999984
Dr. Tomàs Sala (parell) - Sant Vicent Màrtir,transporte,39.44637910000001,-0.387000799999999
Sant Marcel·lí,transporte,39.44727449999999,-0.3909949000000004
Dr. Tomàs Sala - Gaspar Aguilar,transporte,39.4492018,-0.39448170000000066
Ausiàs March - Dr. Waksman,transporte,39.456128899999996,-0.3749343000000015
Dr. Tomàs Sala - Jerónima Galés,transporte,39.4489536,-0.393438200000001
Dr. Tomàs Sala - Carters,transporte,39.44760109999999,-0.3904416000000002
Dr. Tomàs Sala (imparell) - Sant Vicent Màrtir,transporte,39.44680520000001,-0.38707830000000126
Sants Just i Pastor - Fusta,transporte,39.4665481,-0.3369726000000006
Martí Grajales - Serradora,transporte,39.4683138,-0.33447620000000133
Centre de Salut Serreria,transporte,39.4681043,-0.33510770000000034
Borbotó,transporte,39.51416389999999,-0.3885096000000012
Real de Madrid - Entrada Pinet,transporte,39.430425199999995,-0.39256090000000066
Blasco Ibáñez - Manuela Estellés,transporte,39.4701472,-0.3360832999999993
Borbotó,transporte,39.51418149999999,-0.3886678000000002
Inst. Obrer de Val. (parell) - Amado Granell Mesado,transporte,39.45440250000001,-0.36059060000000004
Inst. Obrer de Val. (parell) - Autopista Saler,transporte,39.4560765,-0.3567043000000009
Inst. Obrer de Val. (imparell) - Autopista Saler,transporte,39.45587179999999,-0.3577213000000007
Inst. Obrer de Val. (imparell) - Amado Granell Mesado,transporte,39.4545827,-0.3607164
Petxina - Terol,transporte,39.47605190000001,-0.3935458000000001
Petxina - Ferran el Catòlic,transporte,39.4771983,-0.3907495000000008
Petxina - Torres,transporte,39.4741912,-0.3993062000000006
Petxina - Pérez Galdós,transporte,39.474649299999996,-0.3968646000000016
Port - Trafalgar,transporte,39.4633333,-0.3442854000000006
Port - Noguera,transporte,39.4625878,-0.3417972000000016
Port - Eivissa,transporte,39.4618188,-0.33918879999999957
Port - Pare Porta,transporte,39.4607489,-0.3356107000000006
Port - Eduard Boscà,transporte,39.466859099999986,-0.3561598000000004
Port - Riu Escalona,transporte,39.465946299999985,-0.35309179999999973
Port - Tomàs Montañana,transporte,39.465242100000005,-0.3507567000000005
Port - Cases Carbonell,transporte,39.464493499999996,-0.3482170000000006
Illes Canàries - Eduard Boscà,transporte,39.466415299999994,-0.3564222000000004
Serradora - Peanya,transporte,39.4627781,-0.3376021999999999
Comissaria Policia - Marítim,transporte,39.46288829999999,-0.3285999999999995
Port - Saragossa,transporte,39.46799289999999,-0.3599816000000001
Illes Canàries - Trafalgar,transporte,39.4630324,-0.3445876999999991
Illes Canàries - Vicente Beltrán,transporte,39.4641187,-0.34745259999999994
Illes Canàries - Lebon,transporte,39.4650307,-0.35063270000000074
Illes Canàries - Riu Escalona,transporte,39.46586779999999,-0.35353760000000034
Joan Verdaguer - Isaac Peral,transporte,39.45907809999999,-0.33949290000000076
Les Naus,transporte,39.4588962,-0.33612759999999947
Illes Canàries - Noguera,transporte,39.46179299999999,-0.3416730000000006
Eivissa - Prof.Vicente Llorens,transporte,39.4610257,-0.33956140000000046
Marina de València,transporte,39.463810900000006,-0.32945790000000175
Natzaret,transporte,39.4474805,-0.33179210000000126
Joan Verdaguer - Port,transporte,39.4592414,-0.3336525999999991
Drassanes del Grau,transporte,39.4605354,-0.3326334000000004
Museu de les Ciències,transporte,39.45484090000001,-0.35341440000000013
Ciutat de la Justícia,transporte,39.454609,-0.35435039999999934
Joaquim Ballester - Pare Ferris,transporte,39.484565399999994,-0.38660099999999975
Beniferri,transporte,39.49075549999999,-0.40004860000000053
Mercat de Benimàmet,transporte,39.499151399999995,-0.4176050000000004
Palmaret - Rosa dels Vents,transporte,39.51627469999998,-0.3814101000000013
Estació del Nord - Sant Agustí,transporte,39.4685797,-0.3794379000000002
Marí Blas de Lezo - Felip Gauna,transporte,39.472215000000006,-0.3340277999999994
Hospital València al Mar,transporte,39.477143,-0.32983280000000054
La Cadena - Pare Antón Martí,transporte,39.4753424,-0.32903010000000116
Uruguai - Crta. Escrivà,transporte,39.457988699999994,-0.38683360000000055
Xàtiva,transporte,39.46794609999999,-0.3784071
la Malva-rosa - Gran Canària,transporte,39.4835066,-0.3288359000000005
França - Trafalgar,transporte,39.4587107,-0.34568550000000065
Menorca - Balears,transporte,39.459023699999996,-0.3428141000000011
França - Pintor Maella,transporte,39.459387199999995,-0.3488032000000007
França - Albereda,transporte,39.46010179999998,-0.3520903000000004
Parc Gulliver,transporte,39.46300329999998,-0.35861489999999985
Parc Gulliver,transporte,39.46321919999999,-0.3584194000000001
França - Pare Tomás Montañana,transporte,39.4605229,-0.3523428000000013
França - Vicente Beltrán,transporte,39.46004159999999,-0.3501510000000008
França - Higinio Noja,transporte,39.45920799999999,-0.34627500000000017
Menorca - França,transporte,39.4588982,-0.3435547999999999
Fires(imparell) - Cementeri,transporte,39.5055235,-0.4246734999999997
Fires(parell) - Cementeri,transporte,39.505496599999994,-0.4243437000000006
Hospital Dr. Peset,transporte,39.45225430000001,-0.39328319999999845
Primat Reig - Dr. Gómez Ferrer,transporte,39.4818122,-0.360317100000002
Cardenal Benlloch - Dr. Ferran,transporte,39.4696223,-0.35540640000000145
Jesús,transporte,39.45896780000002,-0.3845131999999982
Camp del Túria - Marina Baixa,transporte,39.49259180000001,-0.4067246000000009
Pinedo,transporte,39.4194723,-0.33598899999999987
Pérez Galdós - Tres Forques,transporte,39.464587,-0.38851220000000014
Campanar - Conchita Piquer,transporte,39.48592599999999,-0.39094360000000083
Peris i Valero - Escultor Josep Capuz,transporte,39.462102,-0.36322700000000063
Giorgeta - Carcaixent,transporte,39.46066379999999,-0.38583019999999985
Pérez Galdós - Martínez Aloy,transporte,39.4636615,-0.3875139
Giorgeta - Albacete,transporte,39.4615073,-0.38597800000000015
Trànsits,transporte,39.489010799999996,-0.38725230000000066
Pérez Galdós - Heroi Romeu,transporte,39.4674858,-0.3902419000000001
Cardenal Benlloch - Sants Just i Pastor,transporte,39.47207790000001,-0.3539118999999993
Cardenal Benlloch - La Pobla de Farnals,transporte,39.469843999999995,-0.35503019999999963
Primat Reig - Viver,transporte,39.4860766,-0.3656403000000003
Primat Reig - Cuenca Tramoyeres,transporte,39.482257700000005,-0.3604884999999996
Primat Reig - Constitució,transporte,39.49185649999999,-0.3733875000000001
Primat Reig - Motilla del Palancar,transporte,39.48864489999999,-0.3691111999999999
Dr. Peset Aleixandre - Av. de Burjassot,transporte,39.4889396,-0.38859710000000086
Dr. Peset Aleixandre - Montcada,transporte,39.491051799999994,-0.37906449999999986
Reina - Espadan,transporte,39.471585,-0.3283075999999997
Reina - Pescadors,transporte,39.4698431,-0.3285610000000003
Conselleries,transporte,39.472430900000006,-0.40532660000000054
Reina - Remonta,transporte,39.4741163,-0.3279175999999998
Sueca - Puerto Rico,transporte,39.4612583,-0.37489829999999985
Sueca - G.V. Germanies,transporte,39.463406,-0.3764138000000012
Reina - Vicent Gallart,transporte,39.46571539999999,-0.3291695000000003
Mestre Rodrigo (Imparell) - General Avilés,transporte,39.48372710000001,-0.4022402000000013
Bioparc,transporte,39.47621629999999,-0.4063979000000007
la Safor - Mestre Rodrigo,transporte,39.48828159999999,-0.40442810000000096
Mestre Rodrigo (Imparell) - la Safor,transporte,39.486907699999996,-0.4045497000000021
Antiga Facultat Magisteri,transporte,39.4615152,-0.3603094999999995
Alcalde Reig (imparell) - Pere Aleixandre,transporte,39.459861599999996,-0.35871699999999945
Vall de la Ballestera - Pío Baroja,transporte,39.47865789999999,-0.4040962999999999
Alcalde Reig - Pont del Regne,transporte,39.461807300000004,-0.36013259999999964
Hernández Lazaro - Vall de la Ballestera,transporte,39.47883040000001,-0.40325930000000215
Hernández Lazaro - Centre Comercial,transporte,39.47690680000001,-0.40338989999999914
Nou Campanar - Hospital Arnau de Vilanova,transporte,39.490160800000005,-0.4042573000000004
Mestre Rodrigo - la Plana Baixa,transporte,39.4890803,-0.4057539999999994
Mestre Rodrigo - la Safor,transporte,39.4870781,-0.4042966999999997
Mestre Rodrigo - General Avilés,transporte,39.4837668,-0.40186049999999957
Menorca - Eivissa,transporte,39.4603712,-0.3406383000000007
Eivissa (parell) - Illes Canàries,transporte,39.46122410000001,-0.3397585
Dr. Lluch - Setmana Santa Marinera,transporte,39.463775,-0.32881169999999976
Port - Joan Josep Sister,transporte,39.4600565,-0.3332911999999996
la Plata - Músic Òscar Esplá,transporte,39.456796499999996,-0.3626665999999995
Marqués de Sotelo,transporte,39.46820009999999,-0.3768649000000016
Port - Illes Canàries,transporte,39.46150130000001,-0.33816949999999985
Lluís Peixò - Comte Melito,transporte,39.4753856,-0.33341639999999934
Fausto Elio (parell) - Universitat Politècnica,transporte,39.47899159999999,-0.3326726000000005
la Malva-rosa - Mendizàbal,transporte,39.4839294,-0.32938230000000035
Fausto Elio (imparell) - Universitat Politècnica,transporte,39.47897559999999,-0.33305470000000076
Lluís Peixò - Tarongers,transporte,39.475242699999995,-0.33374910000000096
Marí Blas de Lezo (imparell) - Estació del Cabanyal,transporte,39.470869,-0.3347572999999995
Serradora - Sants Just i Pastor,transporte,39.46633249999999,-0.3354200000000003
Campanar,transporte,39.4834238,-0.3948288000000009
Beat Juan Grande - Vicent La Roda,transporte,39.4797648,-0.32966770000000106
Albereda - Palau de la Música,transporte,39.46530210000001,-0.3595031999999996
Albereda (riu) - L'Hemisfèric,transporte,39.459316599999994,-0.3528169999999998
Albereda (riu) - Museu de les Ciències,transporte,39.4575293,-0.3502346000000008
Menorca (imparell) - Centre Comercial,transporte,39.4576032,-0.34505200000000047
Serradora - Port,transporte,39.462087100000005,-0.3379866000000001
Marítim - Serradora,transporte,39.4640551,-0.3361208000000005
Guillem de Castro - Comissaria de Policia,transporte,39.47089529999999,-0.38357590000000036
Museu Faller,transporte,39.45904410000001,-0.3584832000000002
Doctor Álvaro López - Vicent La Roda,transporte,39.48062299999999,-0.33107039999999976
Doctor Álvaro López - Illa de Hierro,transporte,39.4827714,-0.3305379999999996
Albereda - Davant Palau de la Música,transporte,39.4657818,-0.3593966000000009
Palau de la Música,transporte,39.4671951,-0.36046530000000043
Marítim - Serradora,transporte,39.4645308,-0.33620320000000004
Albereda - Museu de les Ciències,transporte,39.4576858,-0.3499598000000001
Menorca - Centre Comercial,transporte,39.4573697,-0.34597800000000106
Albereda - L'Hemisfèric,transporte,39.4595307,-0.35263879999999964
Jacinto Benavente - Palau de la Música,transporte,39.46648549999998,-0.3624183000000002
Jacinto Benavente - Pont Àngel Custodi,transporte,39.46467899999999,-0.3613234000000011
,farmacia,39.48448519999999,-0.4009881000000016
,transporte,39.47016299999999,-0.34988170000000113
,transporte,39.47068719999999,-0.35169649999999986
,transporte,39.47223660000001,-0.35749019999999954
,transporte,39.47250699999999,-0.3573606999999999
Ayora,transporte,39.4678226,-0.3431675000000004
Francesc Cubells,transporte,39.46330760000001,-0.3341847000000005
Canyamelar,transporte,39.46642820000001,-0.3279643000000009
Alameda,transporte,39.472657899999994,-0.36665960000000075
Alameda,transporte,39.472867900000004,-0.3668323999999997
Alameda,transporte,39.473332199999994,-0.36526599999999976
Alameda,transporte,39.47353640000001,-0.3654278999999996
Mercadona,alimentacion,39.4750318,-0.3482029999999997
Consum,alimentacion,39.476021399999986,-0.347805600000001
Mercadona,alimentacion,39.4745644,-0.34817779999999976
Fira València,transporte,39.5040402,-0.42555679999999996
Farmacia 24 horas Benimaclet,farmacia,39.4846601,-0.36256159999999904
Av. Gaspar Aguilar - C. Fontanars,transporte,39.456710099999995,-0.3903427000000002
Jesús,transporte,39.4595384,-0.38454020000000083
Jesús,transporte,39.4592203,-0.38473839999999976
Bailén,transporte,39.46395869999999,-0.3792696000000008
Elena Roig Giménez,farmacia,39.4709819,-0.3825655000000002
Calabuig Reyes C.B.,farmacia,39.470563399999996,-0.3848282999999988
Tossal del Rei,transporte,39.4958358,-0.37241610000000036
Sant Miquel dels Reis,transporte,39.4976403,-0.36989420000000045
Estadi Ciutat de València,transporte,39.4950424,-0.36518509999999976
Orriols,transporte,39.49316089999999,-0.36753230000000103
Alfauir,transporte,39.48970909999999,-0.3654241000000009
Farmacia Ortopedia del Pilar,farmacia,39.4812236,-0.3893795000000003
,transporte,39.469461300000006,-0.38415760000000015
,transporte,39.46614769999999,-0.3817480999999991
"València, Cid - Parc de l'Oest",transporte,39.4678883,-0.395668300000001
"València, Ferran el Catòlic 67 - Quart",transporte,39.4753417,-0.3888970000000009
Pl. Espanya,transporte,39.4657893,-0.3821862000000006
Pl. Espanya,transporte,39.4661364,-0.38170200000000065
"València, Àngel Guimerà 46 - Andana 1",transporte,39.469753,-0.38860239999999985
"València, Àngel Guimerà 46 - Andana 2",transporte,39.46973640000001,-0.38869280000000045
"València, Àngel Guimerà 46 - Andana 3",transporte,39.46972029999999,-0.38878139999999956
Àngel Guimerà 48,transporte,39.46968330000001,-0.38891540000000063
"València, Central de Policia Local de València",transporte,39.468574399999994,-0.39985950000000003
"València, Cid - Josep Maestre",transporte,39.4690234,-0.40234989999999987
"València, Cid - Hospital General",transporte,39.469524799999995,-0.405654100000001
Nou d'Octubre,transporte,39.4704188,-0.4061578000000005
"València, Av. del Cid 99 - Barri de la Llum",transporte,39.4692548,-0.4147156999999995
Grau - La Marina,transporte,39.4631592,-0.33000820000000086
Farmacia Bernardeau Serra,farmacia,39.4435366,-0.3902142000000002
Salgui,educacion,39.4448785,-0.39120269999999985
,farmacia,39.443407,-0.3877352000000003
Consum,alimentacion,39.4436039,-0.3917474000000012
Campanar,transporte,39.483826099999995,-0.3950966000000002
Campanar,transporte,39.4825713,-0.39424630000000044
Campanar,transporte,39.484185100000005,-0.39453660000000124
Campanar,transporte,39.482894099999996,-0.39347080000000134
Carrer de Bernardo España Edo - Españeta,transporte,39.49095630000001,-0.3992618000000002
Mercadona,alimentacion,39.4830955,-0.3959185999999999
Túria,transporte,39.4774325,-0.3896944
Túria,transporte,39.4791714,-0.39074830000000155
,farmacia,39.484351399999994,-0.3989197000000002
,farmacia,39.4857196,-0.3968697999999992
Nou d'Octubre,transporte,39.4712396,-0.40848090000000087
Bailén,transporte,39.4639197,-0.3790658000000009
Ausiàs March - Bernat Descoll,transporte,39.4521142,-0.3728043999999986
Ausiàs March - Na Rovella,transporte,39.450202000000004,-0.3714130000000004
Mercadona,alimentacion,39.503305299999994,-0.42317790000000133
Font de la Figuera - Dr. Waksman,transporte,39.4565234,-0.37270140000000085
Sueca - Peris i Valero,transporte,39.458859899999986,-0.37320670000000056
Reus - Poeta Fernández Heredia,transporte,39.4855469,-0.379466800000001
Ruaya (imparell) - Visitació,transporte,39.485339999999994,-0.3764652000000002
Argenter Suárez - Miraculosa,transporte,39.4852837,-0.37292400000000026
Ausiàs March - Manuel Sanchis Guarner,transporte,39.45553329999999,-0.3751398000000006
Pedreguer - Juan Ramón Jiménez,transporte,39.45364399999998,-0.37636769999999997
Reus,transporte,39.4857312,-0.3799272000000007
Reus - Periodista Llorente,transporte,39.48577250000001,-0.38356479999999954
"València, Ricardo Micó frente 26",transporte,39.4830359,-0.38866960000000006
Joaquim Ballester (imparell) - Pare Ferris,transporte,39.484820799999994,-0.3854093000000009
Reus,transporte,39.4857279,-0.3828932000000004
Molinell (imparell) - Alboraia,transporte,39.4851946,-0.3703598000000005
Argenter Suárez - Ministre Luis Mayans,transporte,39.4854456,-0.3729720999999994
Ruaya (parell) - Visitació,transporte,39.48555240000001,-0.3771312000000001
Duc de Mandas - Constitució,transporte,39.4946904,-0.3708570000000013
Consum,alimentacion,39.47338909999999,-0.3590522000000002
Mercadona,alimentacion,39.49549629999999,-0.3704291000000001
Neptú,transporte,39.463232500000004,-0.32585380000000014
Farmacia Gregorio,farmacia,39.4621479,-0.3458490000000007
"Farmacia Gorrochategui-Villuendas, c.b",farmacia,39.46072319999999,-0.34251240000000044
,farmacia,39.46827029999999,-0.4146017000000004
Gaspar Aguilar (parell) - Dr. Tomàs Sala,transporte,39.450461699999984,-0.39447770000000154
Blasco Ibáñez - Suècia,transporte,39.47623659999999,-0.35695220000000083
Carcaixent - Giorgeta,transporte,39.460780199999995,-0.3861315000000008
Uruguai (parell) - Jeroni Munyós,transporte,39.4582695,-0.3869888000000008
Uruguai - Marqués de Bellet,transporte,39.455484699999985,-0.3868643000000007
Carters - Pl. Santiago Suárez,transporte,39.4528827,-0.3885176000000002
Hospital la Fe,transporte,39.44490649999999,-0.3763062000000005
Rotonda dels Hams,transporte,39.44589919999999,-0.3700808000000002
Hospital la Fe,transporte,39.4454497,-0.37721839999999907
Orriols,transporte,39.49304849999999,-0.3685897999999995
Federico Alcácer Aguilar - Poeta Serrano Clavero,transporte,39.494966899999994,-0.38624910000000007
Poeta Serrano Clavero - Equador,transporte,39.4935873,-0.38828000000000035
Centre de Salut Assutzena,transporte,39.49404479999999,-0.39075300000000074
Federico Alcácer Aguilar - Joan XXIII,transporte,39.495196400000005,-0.3843044999999999
Duc de Mandas - Motilla del Palancar,transporte,39.49083679999999,-0.3657001000000005
Riu Nervión - Riu Segre,transporte,39.49565050000001,-0.382183700000001
Equador - Salvador Tuset,transporte,39.4959275,-0.39288690000000115
Equador - General Llorens,transporte,39.4932552,-0.38812009999999925
Casa de la Caritat,transporte,39.4941826,-0.39069030000000005
Duc de Mandas (imparell) - Arquitecto Rodríguez,transporte,39.4943406,-0.3701360000000007
Centre de Salut Arquitecto Tolsà,transporte,39.49300830000001,-0.3683700000000004
Duc de Mandas - Alfahuir,transporte,39.4912807,-0.3660036000000011
Castellonet - Alfara del Patriarca,transporte,39.49264589999999,-0.38608770000000103
Valladolid - Vinaròs,transporte,39.4895688,-0.36244669999999973
Pere Cabanes - Camí de Montcada,transporte,39.49361679999999,-0.3815595000000006
Castellonet - Joan XXIII,transporte,39.493191700000004,-0.3835854999999996
Valladolid - Dolores Marqués,transporte,39.489720399999996,-0.3624386000000001
Amado Granell Mesado (parell) - Antonio Sacramento,transporte,39.452754,-0.3605948000000008
Glòria (parell) - Oliveral,transporte,39.4217837,-0.3644017999999997
Font d'en Corts (imparell) - Alqueria Reial,transporte,39.447520600000004,-0.3596650000000004
Amado Granell Mesado (imparell) - Antonio Ferrandis,transporte,39.45118039999999,-0.35913530000000027
Centre de Salut de València-Castellar,transporte,39.42825640000001,-0.36394259999999967
Ribàs (parell) - Dr. Ruiz Comes,transporte,39.43122249999999,-0.3598060000000017
Mercavalència,transporte,39.436610400000006,-0.35540339999999915
Font d'en Corts (imparell) - Matador d'en Corts,transporte,39.4433382,-0.35674990000000173
Font d'en Corts (parell) - Davant Alqueria Reial,transporte,39.4473765,-0.35966740000000047
Amado Granell Mesado (imparell) - Antonio Sacramento,transporte,39.45273709999999,-0.36026340000000107
Ribàs (imparell) - Ador,transporte,39.4325134,-0.36091180000000067
el Tremolar - Cases Grill,transporte,39.423103499999996,-0.3579804999999999
Crist del Refugi - del Remolí,transporte,39.4247197,-0.3639541000000002
el Tremolar - Barraca de Troia,transporte,39.4221357,-0.3539105999999998
Ribàs (parell) - Ador,transporte,39.43245480000001,-0.3609405999999996
Mare de Déu de Lepant (imparell) - Esc. F. Siurana,transporte,39.4296621,-0.36362470000000086
Forn d'Alcedo,transporte,39.43217279999999,-0.37645279999999953
Mare de Déu de Lepant (parell) - Esc. F. Siurana,transporte,39.429907899999996,-0.36346100000000076
Vicent Puchol - Font de Bonet,transporte,39.42658719999999,-0.3641910000000008
Font d'en Corts (parell) - Matador d'en Corts,transporte,39.4426758,-0.35603069999999937
Font d'en Corts - Levantina Alegre,transporte,39.4479931,-0.36014280000000065
Mercavalència,transporte,39.436634600000005,-0.35562820000000017
Font d'en Corts (parell) - Roig de Iagarda,transporte,39.44560659999999,-0.35832930000000024
Principal - El Caroig,transporte,39.43254459999999,-0.3626471999999998
Glòria (imparell) - Oliveral,transporte,39.4217433,-0.36432060000000144
Font d'en Corts - Camí dels Rocs,transporte,39.444768700000004,-0.35765449999999943
el Tremolar - Crist del Refugi,transporte,39.4236666,-0.36151459999999985
el Tremolar - Casa Rabot,transporte,39.42327130000002,-0.3585615999999999
el Tremolar - Guadiana,transporte,39.4222484,-0.35058529999999966
el Tremolar - Camí del Bracet,transporte,39.42137139999999,-0.34549090000000027
Karl Marx - Guadalquivir,transporte,39.431117,-0.37713479999999905
el Tremolar - Camí Racó,transporte,39.42143529999999,-0.34549890000000166
el Tremolar - Camí del Cavalló,transporte,39.423605,-0.36161419999999994
Vicent Puchol - Arbres,transporte,39.42794159999999,-0.36392720000000106
Camí de les Vaques (parell),transporte,39.4234041,-0.3703865
Font d'en Corts (parell) - Mossén Palanca,transporte,39.4446819,-0.3577014999999996
el Tremolar - Séquia de l'Or,transporte,39.422201000000015,-0.3544754999999996
Font d'en Corts (imparell) - Roig de Iagarda,transporte,39.445954300000004,-0.3584656000000004
Crist del Refugi - Ctra. del Pí,transporte,39.42628500000001,-0.3641331999999994
Camí de les Vaques (imparell),transporte,39.4235262,-0.37035830000000053
Font d'en Corts - Casa de Roc,transporte,39.44855619999999,-0.3605718000000001
Crist del Refugi - Davant Sant Agustí,transporte,39.42446600000001,-0.36394859999999957
Principal - Camí del Ribàs,transporte,39.432738099999995,-0.3624106000000003
Amado Granell Mesado (parell) - Antonio Ferrandis,transporte,39.4506626,-0.3591751000000005
Guadalquivir - Karl Marx,transporte,39.43066159999999,-0.37688340000000037
Ribàs (imparell) - Dr Ruiz Comes,transporte,39.43140559999999,-0.35958409999999996
Peris i Valero - Duc de Calàbria,transporte,39.4612384,-0.3657537000000004
Pinars (imparell) - El Saler,transporte,39.3832151,-0.33233329999999955
Embarcador de l'Albufera (I),transporte,39.34961710000001,-0.32366090000000064
Oceanogràfic,transporte,39.45216280000001,-0.3479951999999995
Centre d'Investigació Príncep Felip,transporte,39.451926,-0.34632680000000055
Barraques del Figuero - Cocoters,transporte,39.4497547,-0.3362494000000007
Barraques del Figuero - Ignacio Zuloaga,transporte,39.4496124,-0.3362374000000006
Oceanogràfic,transporte,39.4523203,-0.34796550000000087
Àgora,transporte,39.45295389999999,-0.35050310000000057
Club Nàutic,transporte,39.427833699999994,-0.3348168000000005
Àgora,transporte,39.453120999999996,-0.3503977000000007
Aamir Alimentación,alimentacion,39.4540495,-0.39114800000000016
,farmacia,39.459506,-0.40049630000000164
Malonda-Subirats C.B.,farmacia,39.4525017,-0.38894060000000097
Rose Indian,alimentacion,39.4538112,-0.3905772000000007
Ldo. Francisco Solana Vives,farmacia,39.4544606,-0.39401089999999983
Family Home,alimentacion,39.4541367,-0.3907684000000014
,alimentacion,39.4533445,-0.39103930000000003
Ldo. Juan Miguel Folgado Bisbal,farmacia,39.454274999999996,-0.3919898000000005
MDomingo,alimentacion,39.45301359999999,-0.38872390000000157
María Herrero Mascarós,farmacia,39.48128809999999,-0.3723149000000005
Farmacia Tormo Falco,farmacia,39.4609532,-0.39144030000000085
Constitució - Reig Genovés,transporte,39.4932169,-0.37318680000000004
Tarongers - Facultat de Magisteri,transporte,39.4797938,-0.34588929999999973
Russafa,transporte,39.46410829999999,-0.3694827000000006
Consum,alimentacion,39.4949603,-0.3802202000000007
Mercadona,alimentacion,39.494015,-0.378993500000001
Consum,alimentacion,39.4950265,-0.3794370000000001
Mercadona,alimentacion,39.4933751,-0.37877100000000025
Campanar 39,farmacia,39.479547899999986,-0.39353790000000133
Ana Serra,farmacia,39.479065399999996,-0.3980628999999994
,alimentacion,39.478665500000005,-0.39480480000000023
Consum,alimentacion,39.4796371,-0.39645460000000016
Doctor F. Rius,farmacia,39.47869309999999,-0.39568290000000095
Herbolario Navarro,alimentacion,39.4812758,-0.39377160000000033
Mercadona,alimentacion,39.4911683,-0.3957917000000001
Consum,alimentacion,39.49192609999999,-0.39656060000000065
Farmacia Nou Mestalla,farmacia,39.491763899999995,-0.39639530000000117
,farmacia,39.490925399999995,-0.39434769999999997
Consum,alimentacion,39.49104629999999,-0.3991226000000003
Loteria 61,alimentacion,39.461217,-0.37299380000000104
Tres Creus - Bolívia,transporte,39.4562705,-0.40103130000000037
Sant Isidre,transporte,39.45118519999999,-0.40265930000000083
,farmacia,39.45561579999998,-0.4044433000000007
Farmacia Contell,farmacia,39.45579339999999,-0.4017245999999996
Carrefour,alimentacion,39.477143899999994,-0.40472870000000066
Mercadona,alimentacion,39.482294700000004,-0.40341979999999944
,farmacia,39.4790652,-0.39850600000000036
,farmacia,39.4813424,-0.4025828999999992
,farmacia,39.478742200000006,-0.4021538000000003
Av. del Cid - Parc de l'Oest,transporte,39.4681732,-0.39760480000000115
Nou d'Octubre,transporte,39.4710491,-0.4085431
Av. del Cid - C. Germans Rivas,transporte,39.4685498,-0.39764860000000013
Av. del Cid - C. Burgos,transporte,39.469053300000006,-0.40003729999999965
Nou d'Octubre,transporte,39.470727600000004,-0.40628419999999993
Av. del Cid - C. Santa Cruz de Tenerife,transporte,39.4686453,-0.40017950000000024
Mercadona,alimentacion,39.4883983,-0.37513769999999963
Consum,alimentacion,39.486874399999984,-0.372890600000002
Sant Vicent Màrtir - Fernández de Mesa,transporte,39.4513379,-0.3848172999999994
Mercadona,alimentacion,39.4630901,-0.34651839999999984
,farmacia,39.4912962,-0.40080890000000025
Les Corts,transporte,39.47872639999999,-0.3743772000000014
Mercadona,alimentacion,39.468306,-0.3386173000000004
Farmacia L'Alguer,farmacia,39.4701876,-0.34034040000000026
Lda. María Teresa Saus Bernabé,farmacia,39.45719569999999,-0.37259370000000114
Biblioteca Municipal Gregori Mayans i Ciscar,educacion,39.461124,-0.3452861000000008
Mercadona,alimentacion,39.4571156,-0.34528750000000014
Consum,alimentacion,39.461679999999994,-0.344231100000001
Consum,alimentacion,39.471830499999996,-0.34442440000000113
Consum,alimentacion,39.4723916,-0.34407040000000005
Dia,alimentacion,39.47447210000001,-0.3455867999999995
,farmacia,39.45873970000001,-0.3462279999999996
Biblioteca Municipal Joan Churat i Saurí,educacion,39.4343112,-0.3929396000000013
,farmacia,39.434425100000006,-0.3925614000000003
Farmacia La Torre,farmacia,39.43522059999999,-0.3910191000000004
"València, Ferran el Catòlic 10 - Àngel Guimerà",transporte,39.470133,-0.3845997000000003
Valencia - Nuevo Centro,transporte,39.4795961,-0.3913956000000002
Illes Canàries,transporte,39.4630455,-0.3488721999999996
Pere II El Cerimoniós - Vicente Beltrán Grimalt,transporte,39.46256110000001,-0.3472195999999998
Consum,alimentacion,39.45897,-0.3664770999999988
Consum,alimentacion,39.46046309999999,-0.3758083000000008
Consum,alimentacion,39.4615851,-0.3660587000000001
Consum,alimentacion,39.465294799999995,-0.37536119999999995
Consum,alimentacion,39.4696066,-0.36828339999999965
Mercadona,alimentacion,39.4598674,-0.3741169
Mercadona,alimentacion,39.465405999999994,-0.36444730000000036
Concha Espejo Cervello,farmacia,39.4612447,-0.3686514999999991
Consum,alimentacion,39.48269909999999,-0.37038900000000036
Mercadona,alimentacion,39.4839609,-0.3697138000000006
Mercadona,alimentacion,39.46169849999999,-0.39382480000000086
Safranar,transporte,39.45446229999999,-0.39835069999999984
Safranar,transporte,39.4553442,-0.3970892000000006
Safranar,transporte,39.4545364,-0.39854500000000154
,farmacia,39.465703399999995,-0.33865150000000094
Serradora - Beteró,transporte,39.477125400000006,-0.33513419999999977
Tarongers - Aparcament,transporte,39.4769035,-0.33585229999999994
Col·legi Major,transporte,39.47850829999999,-0.33993489999999993
Tarongers - Facultat d'Economia,transporte,39.4781293,-0.3401062999999999
Tarongers - Facultat de Dret,transporte,39.4791705,-0.34371659999999987
Escuela Infantil,educacion,39.48196740000001,-0.34860350000000057
Biblioteca Municipal Joanot Martorell,educacion,39.486399799999994,-0.38115789999999994
Sagunt,transporte,39.486581099999995,-0.3741906999999999
Biblioteca Municipal Carola Reig Salvá,educacion,39.48812529999999,-0.3581242000000005
"València, Avinguda de l'Oest - Hospital",transporte,39.4721371,-0.37982159999999954
Vinalesa - Cases de Bàrcena,transporte,39.522820700000004,-0.35711270000000056
Pintor Maella - Vicent Vidal (Cronista),transporte,39.4611697,-0.3477227000000003
Pintor Maella (parell) - França,transporte,39.4591264,-0.3485271000000005
Pintor Maella - Luis Bolinches Compañ,transporte,39.4575995,-0.3482163000000013
Pintor Maella - Menorca,transporte,39.4569886,-0.34751340000000014
Pintor Maella (imparell) - França,transporte,39.45907189999999,-0.3482538000000001
Pintor Maella - Illes Canàries,transporte,39.46337809999999,-0.34642640000000063
Pintor Maella - Balears,transporte,39.46102939999999,-0.3475551000000013
Centre de Salut Xile,transporte,39.4718523,-0.3559289999999995
Finlàndia - Aragó,transporte,39.47152700000001,-0.3588220000000016
Direcció General de Salut Pública,transporte,39.4812916,-0.35242900000000066
Catalunya - Guardia Civil,transporte,39.4797389,-0.35431190000000057
Túria,transporte,39.47718149999999,-0.38960169999999994
Mossén Miguel Tarín (parell) - Miquel Agraït,transporte,39.498519099999996,-0.41640120000000114
,transporte,39.45891989999999,-0.36487600000000064
Consum,alimentacion,39.4693231,-0.3448670000000009
Farmacia Jaime,farmacia,39.460050800000005,-0.3393359999999992
Benicalap,transporte,39.4969072,-0.38479809999999975
Joan XXIII - Federico Alcácer Aguilar,transporte,39.4950413,-0.3840524000000011
Joan XXIII (imparell) - Félix del Río,transporte,39.4905334,-0.3823801000000001
Bailén,transporte,39.46316050000001,-0.3797365999999998
Bulevard Sud - Pont,transporte,39.446214899999994,-0.38633469999999964
Bulevard Sud (imparell) - Malilla,transporte,39.4458062,-0.38083610000000023
General Avilés - Miguel Servet (imparell),transporte,39.4871637,-0.3926205000000004
Plaça d'Espanya,transporte,39.466456,-0.3819723000000003
General Avilés - Pius XII,transporte,39.48613470000001,-0.39500870000000077
Bulevard Sud (parell) - Malilla,transporte,39.4454693,-0.3812626000000005
Vall de la Ballestera - Eduardo Soler i Pérez,transporte,39.4786135,-0.39886850000000046
Hospital 9 d'Octubre,transporte,39.4784045,-0.4028196000000013
Mestre Rodrigo - Canal de Navarrés,transporte,39.49083970000001,-0.40700920000000007
Terrateig - Poeta Rafael Alberti,transporte,39.48111230000001,-0.40390050000000066
Terrateig - Jorge Comín,transporte,39.48116220000001,-0.4037167000000003
Tres Forques - Casa Misericòrdia,transporte,39.4631195,-0.40873420000000044
Alfahuir - Arquitecte Tolsà,transporte,39.490759700000005,-0.36411500000000047
Alfahuir - Germans Machado,transporte,39.4935775,-0.3591783000000001
Centre Salut Alfahuir,transporte,39.49287929999999,-0.3596030000000005
Tres Creus - Músic Ayllón,transporte,39.466797099999994,-0.4056067000000015
Estadi Ciutat de València,transporte,39.492161,-0.36167400000000055
Estadi Ciutat de València,transporte,39.490981100000006,-0.3625913000000012
Pare Esteban Pernet - Centre Comercial,transporte,39.466962800000005,-0.4126046999999996
Pare Esteban Pernet - Casa Misericòrdia,transporte,39.46708969999999,-0.40978550000000064
Marconi - Barri de la Llum,transporte,39.46751299999999,-0.4144619000000003
Machado,transporte,39.491603899999994,-0.3588180000000001
Mercadona,alimentacion,39.48558269999999,-0.3620859000000013
Benimaclet,transporte,39.484799499999994,-0.362021600000002
Machado,transporte,39.492758099999996,-0.3581268999999997
Machado,transporte,39.491597299999995,-0.35933970000000076
Benimaclet,transporte,39.4848472,-0.36264660000000115
Benimaclet,transporte,39.4849342,-0.3626090000000005
Benimaclet,transporte,39.48463819999999,-0.36208330000000033
Supercor,alimentacion,39.489817099999996,-0.3660262
Mercadona,alimentacion,39.4908479,-0.36424250000000086
Farmacia,farmacia,39.4608702,-0.3765713999999992
Trébol,farmacia,39.4609516,-0.33537389999999984
Consum,alimentacion,39.4615907,-0.3357813000000003
,farmacia,39.47476499999999,-0.34517020000000076
Blasco Ibáñez,farmacia,39.47330290000001,-0.34730559999999916
Biblioteca Municipal Grau-Port,educacion,39.4599213,-0.33955640000000054
Biblioteca Municipal Vicent Tortosa i Biosca,educacion,39.5000885,-0.39265629999999957
Biblioteca Municipal Vicent Casp i Verger,educacion,39.464639399999996,-0.3474620999999997
Biblioteca Municipal Palau de l'Exposició,educacion,39.4735879,-0.36247840000000114
Biblioteca Municipal de la Petxina,educacion,39.47521640000001,-0.39426200000000017
Biblioteca Municipal Francesc Almela i Vives,educacion,39.48023659999999,-0.4009189000000007
Biblioteca Municipal Constantí Llombart,educacion,39.462659499999994,-0.3306416
Biblioteca Municipal Casa de la Reina,educacion,39.4674645,-0.3289691000000009
Biblioteca Municipal Roiç de Corella,educacion,39.4487117,-0.37747239999999954
Biblioteca Municipal Nova Al-Russafí,educacion,39.4609316,-0.3706940999999995
Biblioteca Municipal María Moliner,educacion,39.4762495,-0.34913140000000004
Biblioteca Municipal Isabel de Villena,educacion,39.4924326,-0.3821432000000011
Biblioteca Municipal Germana de Foix,educacion,39.46038,-0.38577199999999984
Biblioteca Municipal Clara Santiró i Font,educacion,39.4472428,-0.3926719999999989
Biblioteca Municipal Azorín,educacion,39.460234400000004,-0.3930535999999996
Biblioteca Municipal Vicent Boix i Ricarte,educacion,39.4660039,-0.40926120000000094
Aquara,alimentacion,39.46855440000001,-0.38132990000000094
Avanza Salut,salud,39.46884850000001,-0.3817025999999997
Mantequería Llamas Centelles,alimentacion,39.47040530000001,-0.38400320000000016
Farmacia Boix & Boix Cosmetics,farmacia,39.467986899999985,-0.37975130000000157
,farmacia,39.383047000000005,-0.33323630000000065
Guadalupe Llatas,farmacia,39.4716537,-0.36837580000000103
Clínica Podológica,salud,39.4701224,-0.34911749999999936
Farmacia Palomares Cuéllar,farmacia,39.470419899999996,-0.34901049999999967
Clínica Candela,salud,39.472010000000004,-0.3488247000000002
Amigo,alimentacion,39.4704409,-0.34950550000000086
Colón,transporte,39.47008949999999,-0.3708434000000002
Farmacia Colón,farmacia,39.4689358,-0.3720289999999994
Biblioteca Municipal Eduard Escalant,educacion,39.46795889999999,-0.3880343000000012
Sabina,farmacia,39.47340620000001,-0.34425770000000067
Consum,alimentacion,39.49061609999998,-0.3811959000000011
Consum,alimentacion,39.4912511,-0.3808189999999996
Mercadona,alimentacion,39.45166659999999,-0.38898640000000106
Mercadona,alimentacion,39.452159,-0.3898443999999999
Farmacia Blanquerias,farmacia,39.479918,-0.3772664999999999
Superbotella,alimentacion,39.4838763,-0.3278698999999992
Farmacia Llopis Gonzalez,farmacia,39.481783699999994,-0.3279727000000013
Mercadona,alimentacion,39.4807087,-0.32793890000000087
Bailén - Alacant,transporte,39.463321099999995,-0.37892200000000054
Mercadona,alimentacion,39.4782614,-0.35683090000000117
Ayora,transporte,39.466275700000004,-0.3428077999999994
Bailén,transporte,39.46301629999999,-0.3790446000000013
,farmacia,39.4727429,-0.39393589999999984
,farmacia,39.4704897,-0.39422619999999986
,farmacia,39.4719028,-0.3920107000000002
Farmacia Ruiz Aznar,farmacia,39.4679179,-0.3597989999999995
Pérez Galdós - Sant Josep de la Muntanya,transporte,39.47387929999999,-0.39481650000000007
Mercadona,alimentacion,39.4678704,-0.3856018000000011
,farmacia,39.4826914,-0.3847637000000003
Biblioteca de ADE-Topografía,educacion,39.48136780000001,-0.3369311000000003
Farmacia Mª Soledad Yoldi Galar,farmacia,39.47608689999999,-0.39847630000000095
Estació del Cabanyal,transporte,39.470705800000005,-0.3344532999999997
Actor Antonio Ferrandis - Centre Comercial,transporte,39.45300480000001,-0.3531459000000008
Actor Antonio Ferrandis (imparell) - Centre Comercial,transporte,39.45266819999999,-0.35283430000000093
Actor Antonio Ferrandis (parell) - Amado Granell Mesado,transporte,39.45088689999999,-0.3580850000000009
Actor Antonio Ferrandis (imparell) - Amado Granell Mesado,transporte,39.45046490000001,-0.35797469999999937
Actor Antonio Ferrandis (imparell) - Font de St. Lluís,transporte,39.4463738,-0.3676622000000003
Actor Antonio Ferrandis (parell) - Font de St. Lluís,transporte,39.4468674,-0.36780029999999997
Hospital la Fe,transporte,39.4448501,-0.3757131000000008
Mercadona,alimentacion,39.4707871,-0.3907142000000005
Marítim,transporte,39.46483489999999,-0.3385056999999998
Palau de Congressos,transporte,39.49728369999999,-0.4000598000000012
Florista,transporte,39.49572499999999,-0.39790999999999976
Benicalap,transporte,39.48999820000001,-0.3900097999999993
Trànsits,transporte,39.4895838,-0.38702929999999997
Reus,transporte,39.485960399999996,-0.3816827000000004
Sagunt,transporte,39.48648010000001,-0.37551710000000066
Sant Miquel dels Reis,transporte,39.4976694,-0.3698819000000004
Beteró,transporte,39.4767346,-0.33446009999999987
Tarongers Ernest Lluch,transporte,39.47819219999999,-0.33952150000000036
Trinitat,transporte,39.48632229999999,-0.3674559000000005
Florista,transporte,39.495707100000004,-0.3979362999999995
Les Carolines-Fira,transporte,39.4990148,-0.4249244999999994
Benimàmet,transporte,39.5018496,-0.4187198999999994
Beniferri,transporte,39.4908715,-0.3993908999999992
Campanar,transporte,39.4835506,-0.3941092
Túria,transporte,39.47825420000001,-0.3902759000000005
Plaça Espanya,transporte,39.46621970000001,-0.3820885000000002
Safranar,transporte,39.45508509999999,-0.39776880000000076
Patraix,transporte,39.4564669,-0.39034210000000036
Machado,transporte,39.492086,-0.3587134000000001
Benimaclet,transporte,39.4848096,-0.36235199999999973
Facultats - Manuel Broseta,transporte,39.478104200000004,-0.36188370000000003
Alameda,transporte,39.47310809999999,-0.36601769999999906
Colón,transporte,39.4701853,-0.3708376000000004
Avinguda del Cid,transporte,39.468547099999995,-0.3979340999999995
Nou d'Octubre,transporte,39.470762500000006,-0.4068716999999999
Ayora,transporte,39.46777469999999,-0.34312720000000096
Amistat,transporte,39.4703326,-0.350490000000001
Bailén,transporte,39.4635964,-0.37927610000000067
Lda. Encarna Ibañez,farmacia,39.4885503,-0.3660711000000008
Fira València,transporte,39.5040505,-0.4255872000000003
Palau de Congressos,transporte,39.497258599999995,-0.4000643999999997
Florista,transporte,39.49571619999999,-0.39792289999999925
Garbí,transporte,39.492746999999994,-0.3947103000000011
Garbí,transporte,39.4924566,-0.39442270000000035
Benicalap,transporte,39.4899812,-0.39001340000000023
Trànsits,transporte,39.4895662,-0.38703250000000117
Marxalenes,transporte,39.487966199999995,-0.38382060000000107
Marxalenes,transporte,39.48794500000002,-0.38382579999999944
Reus,transporte,39.48594719999999,-0.38172019999999957
Sagunt,transporte,39.486531400000004,-0.37486369999999997
Pont de Fusta,transporte,39.48217590000001,-0.3728676999999995
Pont de Fusta,transporte,39.48217999999999,-0.37289680000000114
Marítim,transporte,39.4648036,-0.33852350000000053
Francesc Cubells,transporte,39.463278499999994,-0.33418830000000027
Grau - La Marina,transporte,39.4631351,-0.3299613000000009
Neptú,transporte,39.4632891,-0.3258363000000009
Canyamelar,transporte,39.466448799999995,-0.32792370000000115
Tossal del Rei,transporte,39.49584659999999,-0.3724493000000013
Tossal del Rei,transporte,39.4958291,-0.37243959999999987
Sant Miquel dels Reis,transporte,39.4976579,-0.36989220000000006
Estadi Ciutat de València,transporte,39.4950154,-0.3651641000000006
Estadi Ciutat de València,transporte,39.49502460000001,-0.36517130000000014
Orriols,transporte,39.493137399999995,-0.3675034000000011
Orriols,transporte,39.4931495,-0.3675178000000001
Alfauir,transporte,39.4896858,-0.3654009000000002
Alfauir,transporte,39.4896883,-0.3654372999999999
Benimaclet,transporte,39.4850264,-0.36303820000000003
Benimaclet,transporte,39.484901400000005,-0.36266990000000016
Vicent Zaragozà,transporte,39.4833333,-0.3572778000000008
Universitat Politècnica,transporte,39.481212199999995,-0.35000260000000105
Universitat Politècnica,transporte,39.48120360000001,-0.3500211000000007
la Carrasca,transporte,39.47962379999999,-0.3444889000000001
La Cadena,transporte,39.4752756,-0.32940290000000017
,transporte,39.455515600000005,-0.3291535000000002
Moreres,transporte,39.4499696,-0.3384552000000009
Reyes Chamero,farmacia,39.4767018,-0.37493899999999947
Farmacia Blanch,farmacia,39.47874170000001,-0.37636020000000053
Natzaret,transporte,39.4499309,-0.33476439999999996
Natzaret,transporte,39.44987509999999,-0.3347839000000011
Moreres,transporte,39.45000120000001,-0.3384755999999998
L'Oceanogràfic,transporte,39.45195220000001,-0.3473810999999999
L'Oceanogràfic,transporte,39.4519216,-0.3473791000000007
Ciutat Arts i Ciències - Justícia,transporte,39.452690800000006,-0.3533441000000013
Ciutat Arts i Ciències - Justícia,transporte,39.45266569999999,-0.35332240000000054
Amado Granell-Montolivet,transporte,39.4593675,-0.3651680999999997
Russafa,transporte,39.464076199999994,-0.36953960000000036
Alacant,transporte,39.4635637,-0.3774626000000002
,transporte,39.4646047,-0.3376027000000003
ALDI,alimentacion,39.47661240000001,-0.3507026000000002
Charter,alimentacion,39.4715908,-0.3333855000000003
Farmacia Marcos Bohiges,farmacia,39.453849999999996,-0.3610313999999991
Consum,alimentacion,39.5005373,-0.4225617000000003
Llorens Sancho,farmacia,39.49855649999999,-0.41902780000000045
Mercadona,alimentacion,39.49322999999999,-0.3929364999999995
,farmacia,39.49336219999999,-0.3925264000000006
Campamento,farmacia,39.50267170000001,-0.4199039
Natur House,alimentacion,39.50261749999999,-0.42007790000000217
,farmacia,39.5002469,-0.41861380000000026
Blat Market,alimentacion,39.49959909999999,-0.4183289000000007
,farmacia,39.5022114,-0.4169716000000012
Bellver,farmacia,39.475519099999985,-0.3848569000000004
,farmacia,39.4711877,-0.3764092999999997
Carrefour Express,alimentacion,39.463819699999995,-0.3728674000000016
Supermercat D'omar,alimentacion,39.46366909999998,-0.37192670000000005
Euromarket,alimentacion,39.46214949999999,-0.3425384000000007
"Farmacia Lds. Oliver, C.B.",farmacia,39.46258819999999,-0.3428354000000002
Consum,alimentacion,39.461450699999986,-0.3877232999999996
Interapothek,farmacia,39.48183019999999,-0.3705312000000005
Coaliment,alimentacion,39.4660311,-0.32928030000000097
Democràcia - Conselleries,transporte,39.472728000000004,-0.4028361000000009
Mercadona,alimentacion,39.46930400000001,-0.37331280000000006
Carrefour Express,alimentacion,39.4712079,-0.3850927999999986
Quart de Kilo,alimentacion,39.4756021,-0.3854552999999991
Albufera - Pl. de la Sequiota,transporte,39.310616199999984,-0.31767750000000106
el Palmar,transporte,39.31166410000001,-0.317736200000001
Vicent Baldoví - Novelda,transporte,39.313954200000005,-0.31782239999999967
Vicent Baldoví - Pintor Martí Girbés,transporte,39.31407810000001,-0.3175387999999988
Cementeri El Palmar,transporte,39.32167040000001,-0.3178498000000004
Cementeri El Palmar,transporte,39.3216186,-0.3179066000000011
Carretera del Palmar - Pinars,transporte,39.340590899999995,-0.3191043999999997
Pinars - Carretera del Palmar,transporte,39.3405089,-0.3192403999999999
Mercadona,alimentacion,39.4666651,-0.33267549999999974
Dialprix,alimentacion,39.4697591,-0.37984570000000045
Farmacia 24 horas Plaza de España,farmacia,39.464721100000006,-0.38149730000000104
Carrefour Express,alimentacion,39.4718195,-0.33884010000000025
Farmacia Pastor Pastor,farmacia,39.47335609999999,-0.32808530000000025
,farmacia,39.48671899999999,-0.36838800000000044
Platja del Saler,transporte,39.380360399999994,-0.3242945999999997
,alimentacion,39.3832294,-0.33254430000000096
Economy Cash,alimentacion,39.4581502,-0.3928203999999998
Economy Cash,alimentacion,39.4834015,-0.3831355000000002
Kuups,alimentacion,39.469676400000004,-0.3837298999999998
Economy Cash,alimentacion,39.46350249999998,-0.35238500000000084
Farmacia Marcilla,farmacia,39.45813319999999,-0.39052080000000094
Lidl,alimentacion,39.4870005,-0.3749129000000002
Consum,alimentacion,39.46121349999999,-0.3449904000000016
Clinica Trinitat Podología y Fisioterapia,salud,39.484561799999994,-0.3696646000000004
Vidal Tello,farmacia,39.47351510000001,-0.38964690000000063
La Aurora,educacion,39.47467730000001,-0.39109060000000123
Hernandez Gimenez,farmacia,39.474861000000004,-0.3887261000000004
Dia,alimentacion,39.47256230000001,-0.33347380000000104
Farmacia Cabañal,farmacia,39.47087200000001,-0.33241950000000053
Clínica Facial 10,salud,39.4705855,-0.37599139999999986
Mercadona,alimentacion,39.475093,-0.3899027000000014
Consum,alimentacion,39.4835123,-0.3271946000000008
Aragó,transporte,39.4724072,-0.35753950000000034
,farmacia,39.4702795,-0.3285525000000005
Consum,alimentacion,39.4512693,-0.3346698999999992
Mercadona,alimentacion,39.484434,-0.3833639999999996
Rosa Ballester,farmacia,39.4551935,-0.3781436000000006
Lidl,alimentacion,39.493685,-0.3592740000000001
Super Nuevo Zhong Hua,alimentacion,39.4671679,-0.3792497999999997
ALDI,alimentacion,39.4693425,-0.39154
Carrefour Express,alimentacion,39.4682094,-0.3561967999999996
Lidl,alimentacion,39.4629572,-0.3420660999999999
Consum,alimentacion,39.4659547,-0.3521603000000005
Farmacia Marvisan C.B.,farmacia,39.4472502,-0.3795410999999993
Farmacia Colom Marí,farmacia,39.44915389999999,-0.37930360000000085
"Centre Privat d'Educació Infantil, Primària i Secundària Martí Sorolla",educacion,39.45115870000001,-0.3776791000000003
Centro de Rehabilitación Médica Paseo al Mar,salud,39.471215199999996,-0.35555790000000054
"Hispania, escuela de español",educacion,39.4803645,-0.3637562
Mercadona,alimentacion,39.4821412,-0.3608681999999998
Consum,alimentacion,39.4813013,-0.3611776000000012
Consum,alimentacion,39.47103769999998,-0.3802139000000009
Consum,alimentacion,39.4837107,-0.3846174
Clinica Dental Nord,salud,39.46518559999999,-0.3507310000000005
Alimentacion Gran Jardin,alimentacion,39.464611899999994,-0.3487867999999997
Neptú,transporte,39.463224800000006,-0.32600959999999907
