{
"type": "FeatureCollection",
"name": "zone_points",
"crs": { "type": "name", "properties": { "name": "urn:ogc:def:crs:OGC:1.3:CRS84" } },
"features": [
{ "type": "Feature", "properties": { "zone_id": "B001", "zone_name": "LA CREU COBERTA" }, "geometry": { "type": "Point", "coordinates": [ -0.385800254547131, 39.450389047455978 ] } },
{ "type": "Feature", "properties": { "zone_id": "B002", "zone_name": "LA FONTETA S.LLUIS" }, "geometry": { "type": "Point", "coordinates": [ -0.367262482711622, 39.444916628648002 ] } },
{ "type": "Feature", "properties": { "zone_id": "B003", "zone_name": "RAFALELL-VISTABELLA" }, "geometry": { "type": "Point", "coordinates": [ -0.300259470469918, 39.558090226246847 ] } },
{ "type": "Feature", "properties": { "zone_id": "B004", "zone_name": "CAMI DE VERA" }, "geometry": { "type": "Point", "coordinates": [ -0.35072578220034, 39.487742178033209 ] } },
{ "type": "Feature", "properties": { "zone_id": "B005", "zone_name": "BENIMAMET" }, "geometry": { "type": "Point", "coordinates": [ -0.420755104006324, 39.501132418323152 ] } },
{ "type": "Feature", "properties": { "zone_id": "B006", "zone_name": "BENIFERRI" }, "geometry": { "type": "Point", "coordinates": [ -0.405070314286867, 39.495836148359032 ] } },
{ "type": "Feature", "properties": { "zone_id": "B007", "zone_name": "EL PALMAR" }, "geometry": { "type": "Point", "coordinates": [ -0.354713022797445, 39.336488296739219 ] } },
{ "type": "Feature", "properties": { "zone_id": "B008", "zone_name": "EL SALER" }, "geometry": { "type": "Point", "coordinates": [ -0.319368717464397, 39.354310354298029 ] } },
{ "type": "Feature", "properties": { "zone_id": "B009", "zone_name": "EL PERELLONET" }, "geometry": { "type": "Point", "coordinates": [ -0.294486558153064, 39.296095370348404 ] } },
{ "type": "Feature", "properties": { "zone_id": "B010", "zone_name": "CIUTAT FALLERA" }, "geometry": { "type": "Point", "coordinates": [ -0.393564725083092, 39.499832100884809 ] } },
{ "type": "Feature", "properties": { "zone_id": "B011", "zone_name": "CARPESA" }, "geometry": { "type": "Point", "coordinates": [ -0.378428699766914, 39.515754922894764 ] } },
{ "type": "Feature", "properties": { "zone_id": "B012", "zone_name": "BORBOTO" }, "geometry": { "type": "Point", "coordinates": [ -0.393922626567828, 39.520014856540676 ] } },
{ "type": "Feature", "properties": { "zone_id": "B013", "zone_name": "BENIFARAIG" }, "geometry": { "type": "Point", "coordinates": [ -0.383978425362211, 39.525077970479657 ] } },
{ "type": "Feature", "properties": { "zone_id": "B014", "zone_name": "TORREFIEL" }, "geometry": { "type": "Point", "coordinates": [ -0.376146016724911, 39.494708435224076 ] } },
{ "type": "Feature", "properties": { "zone_id": "B015", "zone_name": "TORMOS" }, "geometry": { "type": "Point", "coordinates": [ -0.380862668612045, 39.489242981230994 ] } },
{ "type": "Feature", "properties": { "zone_id": "B016", "zone_name": "MARXALENES" }, "geometry": { "type": "Point", "coordinates": [ -0.382531525462259, 39.486071202292159 ] } },
{ "type": "Feature", "properties": { "zone_id": "B017", "zone_name": "EL CALVARI" }, "geometry": { "type": "Point", "coordinates": [ -0.390312610828082, 39.487232719784529 ] } },
{ "type": "Feature", "properties": { "zone_id": "B018", "zone_name": "MORVEDRE" }, "geometry": { "type": "Point", "coordinates": [ -0.375255039621199, 39.48367064155893 ] } },
{ "type": "Feature", "properties": { "zone_id": "B019", "zone_name": "TRINITAT" }, "geometry": { "type": "Point", "coordinates": [ -0.368984702155509, 39.481828436258205 ] } },
{ "type": "Feature", "properties": { "zone_id": "B020", "zone_name": "EL CARME" }, "geometry": { "type": "Point", "coordinates": [ -0.379981946172353, 39.47861983494164 ] } },
{ "type": "Feature", "properties": { "zone_id": "B021", "zone_name": "EL BOTANIC" }, "geometry": { "type": "Point", "coordinates": [ -0.386273112619639, 39.475322438804355 ] } },
{ "type": "Feature", "properties": { "zone_id": "B022", "zone_name": "EXPOSICIO" }, "geometry": { "type": "Point", "coordinates": [ -0.36366744623969, 39.476059423969559 ] } },
{ "type": "Feature", "properties": { "zone_id": "B023", "zone_name": "LA XEREA" }, "geometry": { "type": "Point", "coordinates": [ -0.37067500445837, 39.474402971089539 ] } },
{ "type": "Feature", "properties": { "zone_id": "B024", "zone_name": "EL MERCAT" }, "geometry": { "type": "Point", "coordinates": [ -0.378473056275329, 39.47379540175379 ] } },
{ "type": "Feature", "properties": { "zone_id": "B025", "zone_name": "EL PILAR" }, "geometry": { "type": "Point", "coordinates": [ -0.382423106432213, 39.473357437225403 ] } },
{ "type": "Feature", "properties": { "zone_id": "B026", "zone_name": "EL PLA DEL REMEI" }, "geometry": { "type": "Point", "coordinates": [ -0.368277990626606, 39.468979471276953 ] } },
{ "type": "Feature", "properties": { "zone_id": "B027", "zone_name": "L'ILLA PERDUDA" }, "geometry": { "type": "Point", "coordinates": [ -0.341647648056711, 39.469100844256047 ] } },
{ "type": "Feature", "properties": { "zone_id": "B028", "zone_name": "ARRANCAPINS" }, "geometry": { "type": "Point", "coordinates": [ -0.383236762035808, 39.463310723778889 ] } },
{ "type": "Feature", "properties": { "zone_id": "B029", "zone_name": "LA ROQUETA" }, "geometry": { "type": "Point", "coordinates": [ -0.37949009483471, 39.466577561215551 ] } },
{ "type": "Feature", "properties": { "zone_id": "B030", "zone_name": "LA RAIOSA" }, "geometry": { "type": "Point", "coordinates": [ -0.386068929108144, 39.458629106885233 ] } },
{ "type": "Feature", "properties": { "zone_id": "B031", "zone_name": "SAFRANAR" }, "geometry": { "type": "Point", "coordinates": [ -0.39716863897159, 39.458707084513378 ] } },
{ "type": "Feature", "properties": { "zone_id": "B032", "zone_name": "SANT LLORENS" }, "geometry": { "type": "Point", "coordinates": [ -0.361987914797193, 39.495467006040933 ] } },
{ "type": "Feature", "properties": { "zone_id": "B033", "zone_name": "EN CORTS" }, "geometry": { "type": "Point", "coordinates": [ -0.371063482183799, 39.454964105909482 ] } },
{ "type": "Feature", "properties": { "zone_id": "B034", "zone_name": "MALILLA" }, "geometry": { "type": "Point", "coordinates": [ -0.376385451076715, 39.446703991262297 ] } },
{ "type": "Feature", "properties": { "zone_id": "B035", "zone_name": "JAUME ROIG" }, "geometry": { "type": "Point", "coordinates": [ -0.36270785715869, 39.482064378489397 ] } },
{ "type": "Feature", "properties": { "zone_id": "B036", "zone_name": "BENIMACLET" }, "geometry": { "type": "Point", "coordinates": [ -0.358407844641137, 39.484075894149051 ] } },
{ "type": "Feature", "properties": { "zone_id": "B037", "zone_name": "CIUTAT UNIVERSITARIA" }, "geometry": { "type": "Point", "coordinates": [ -0.360290508143463, 39.478786714442812 ] } },
{ "type": "Feature", "properties": { "zone_id": "B038", "zone_name": "BENICALAP" }, "geometry": { "type": "Point", "coordinates": [ -0.392024733571143, 39.49250070625758 ] } },
{ "type": "Feature", "properties": { "zone_id": "B039", "zone_name": "SANT ANTONI" }, "geometry": { "type": "Point", "coordinates": [ -0.372836105535798, 39.488850051738702 ] } },
{ "type": "Feature", "properties": { "zone_id": "B040", "zone_name": "MESTALLA" }, "geometry": { "type": "Point", "coordinates": [ -0.359468386944085, 39.470385921159462 ] } },
{ "type": "Feature", "properties": { "zone_id": "B041", "zone_name": "ALBORS" }, "geometry": { "type": "Point", "coordinates": [ -0.353024015328543, 39.468349224965287 ] } },
{ "type": "Feature", "properties": { "zone_id": "B042", "zone_name": "L'AMISTAT" }, "geometry": { "type": "Point", "coordinates": [ -0.351168603522265, 39.472435195944293 ] } },
{ "type": "Feature", "properties": { "zone_id": "B043", "zone_name": "BETERO" }, "geometry": { "type": "Point", "coordinates": [ -0.33578595002261, 39.472748000858608 ] } },
{ "type": "Feature", "properties": { "zone_id": "B044", "zone_name": "CABANYAL-CANYAMELAR" }, "geometry": { "type": "Point", "coordinates": [ -0.329151207718165, 39.469654405557151 ] } },
{ "type": "Feature", "properties": { "zone_id": "B045", "zone_name": "LA CARRASCA" }, "geometry": { "type": "Point", "coordinates": [ -0.343163891015809, 39.479696023028495 ] } },
{ "type": "Feature", "properties": { "zone_id": "B046", "zone_name": "LA MALVA-ROSA" }, "geometry": { "type": "Point", "coordinates": [ -0.328428078110453, 39.480220759709589 ] } },
{ "type": "Feature", "properties": { "zone_id": "B047", "zone_name": "LA VEGA BAIXA" }, "geometry": { "type": "Point", "coordinates": [ -0.350039973042455, 39.476539947292153 ] } },
{ "type": "Feature", "properties": { "zone_id": "B048", "zone_name": "AIORA" }, "geometry": { "type": "Point", "coordinates": [ -0.343337556357477, 39.465745432161235 ] } },
{ "type": "Feature", "properties": { "zone_id": "B049", "zone_name": "CIUTAT JARDI" }, "geometry": { "type": "Point", "coordinates": [ -0.345328239943485, 39.471995685198202 ] } },
{ "type": "Feature", "properties": { "zone_id": "B050", "zone_name": "NATZARET" }, "geometry": { "type": "Point", "coordinates": [ -0.331853624754993, 39.445625023663034 ] } },
{ "type": "Feature", "properties": { "zone_id": "B051", "zone_name": "LA PUNTA" }, "geometry": { "type": "Point", "coordinates": [ -0.350811103022921, 39.440932678132349 ] } },
{ "type": "Feature", "properties": { "zone_id": "B052", "zone_name": "EL GRAU" }, "geometry": { "type": "Point", "coordinates": [ -0.321895943429042, 39.443152966021948 ] } },
{ "type": "Feature", "properties": { "zone_id": "B053", "zone_name": "RUSSAFA" }, "geometry": { "type": "Point", "coordinates": [ -0.373107949844434, 39.460607023858493 ] } },
{ "type": "Feature", "properties": { "zone_id": "B054", "zone_name": "LA GRAN VIA" }, "geometry": { "type": "Point", "coordinates": [ -0.365895002152916, 39.466207098606745 ] } },
{ "type": "Feature", "properties": { "zone_id": "B055", "zone_name": "MONTOLIVET" }, "geometry": { "type": "Point", "coordinates": [ -0.363923168500082, 39.459338261924735 ] } },
{ "type": "Feature", "properties": { "zone_id": "B056", "zone_name": "LA FONTSANTA" }, "geometry": { "type": "Point", "coordinates": [ -0.408015180497266, 39.467043947502304 ] } },
{ "type": "Feature", "properties": { "zone_id": "B057", "zone_name": "VARA DE QUART" }, "geometry": { "type": "Point", "coordinates": [ -0.408053356264198, 39.457716174446269 ] } },
{ "type": "Feature", "properties": { "zone_id": "B058", "zone_name": "PATRAIX" }, "geometry": { "type": "Point", "coordinates": [ -0.392123632157812, 39.461979035490863 ] } },
{ "type": "Feature", "properties": { "zone_id": "B059", "zone_name": "TRES FORQUES" }, "geometry": { "type": "Point", "coordinates": [ -0.400448693910366, 39.466735279637319 ] } },
{ "type": "Feature", "properties": { "zone_id": "B060", "zone_name": "NOU MOLES" }, "geometry": { "type": "Point", "coordinates": [ -0.399091397929201, 39.471119206512554 ] } },
{ "type": "Feature", "properties": { "zone_id": "B061", "zone_name": "SOTERNES" }, "geometry": { "type": "Point", "coordinates": [ -0.409074007794083, 39.470937734856889 ] } },
{ "type": "Feature", "properties": { "zone_id": "B062", "zone_name": "LA LLUM" }, "geometry": { "type": "Point", "coordinates": [ -0.412976415792967, 39.467884129104803 ] } },
{ "type": "Feature", "properties": { "zone_id": "B063", "zone_name": "SANT PAU" }, "geometry": { "type": "Point", "coordinates": [ -0.409536538310603, 39.484989002251666 ] } },
{ "type": "Feature", "properties": { "zone_id": "B064", "zone_name": "LA PETXINA" }, "geometry": { "type": "Point", "coordinates": [ -0.391195825769526, 39.47389031878609 ] } },
{ "type": "Feature", "properties": { "zone_id": "B065", "zone_name": "CAMPANAR" }, "geometry": { "type": "Point", "coordinates": [ -0.393639458419586, 39.481127372217877 ] } },
{ "type": "Feature", "properties": { "zone_id": "B066", "zone_name": "LES TENDETES" }, "geometry": { "type": "Point", "coordinates": [ -0.385183467145184, 39.482872018939574 ] } },
{ "type": "Feature", "properties": { "zone_id": "B067", "zone_name": "CAMI REAL" }, "geometry": { "type": "Point", "coordinates": [ -0.398640093247159, 39.446082662210905 ] } },
{ "type": "Feature", "properties": { "zone_id": "B068", "zone_name": "FAVARA" }, "geometry": { "type": "Point", "coordinates": [ -0.395099052135665, 39.453518961409735 ] } },
{ "type": "Feature", "properties": { "zone_id": "B069", "zone_name": "SANT ISIDRE" }, "geometry": { "type": "Point", "coordinates": [ -0.404076202536931, 39.453215355003366 ] } },
{ "type": "Feature", "properties": { "zone_id": "B070", "zone_name": "L'HORT DE SENABRE" }, "geometry": { "type": "Point", "coordinates": [ -0.391007066434757, 39.451985758821237 ] } },
{ "type": "Feature", "properties": { "zone_id": "B071", "zone_name": "CAMI FONDO" }, "geometry": { "type": "Point", "coordinates": [ -0.352846112666609, 39.464613312654848 ] } },
{ "type": "Feature", "properties": { "zone_id": "B072", "zone_name": "NA ROVELLA" }, "geometry": { "type": "Point", "coordinates": [ -0.365435377386886, 39.453404263233317 ] } },
{ "type": "Feature", "properties": { "zone_id": "B073", "zone_name": "PENYA-ROJA" }, "geometry": { "type": "Point", "coordinates": [ -0.350088850801541, 39.459802928826782 ] } },
{ "type": "Feature", "properties": { "zone_id": "B074", "zone_name": "LA CREU DEL GRAU" }, "geometry": { "type": "Point", "coordinates": [ -0.344636007569708, 39.461540395812598 ] } },
{ "type": "Feature", "properties": { "zone_id": "B075", "zone_name": "CIUTAT DE LES ARTS I DE LES CIENCIES" }, "geometry": { "type": "Point", "coordinates": [ -0.3542706533394, 39.453522224419821 ] } },
{ "type": "Feature", "properties": { "zone_id": "B076", "zone_name": "POBLE NOU" }, "geometry": { "type": "Point", "coordinates": [ -0.389765529368479, 39.506069779322068 ] } },
{ "type": "Feature", "properties": { "zone_id": "B077", "zone_name": "LES CASES DE BARCENA" }, "geometry": { "type": "Point", "coordinates": [ -0.360654390456376, 39.524235477382234 ] } },
{ "type": "Feature", "properties": { "zone_id": "B078", "zone_name": "MAHUELLA-TAULADELLA" }, "geometry": { "type": "Point", "coordinates": [ -0.335557317010266, 39.543780058475079 ] } },
{ "type": "Feature", "properties": { "zone_id": "B079", "zone_name": "PINEDO" }, "geometry": { "type": "Point", "coordinates": [ -0.340608264999906, 39.406596352968315 ] } },
{ "type": "Feature", "properties": { "zone_id": "B080", "zone_name": "MASSARROJOS" }, "geometry": { "type": "Point", "coordinates": [ -0.410510119309044, 39.544073399183162 ] } },
{ "type": "Feature", "properties": { "zone_id": "B081", "zone_name": "FAITANAR" }, "geometry": { "type": "Point", "coordinates": [ -0.414158915131026, 39.443573761127546 ] } },
{ "type": "Feature", "properties": { "zone_id": "B082", "zone_name": "CASTELLAR-L'OLIVERAL" }, "geometry": { "type": "Point", "coordinates": [ -0.358554037827512, 39.426718389967093 ] } },
{ "type": "Feature", "properties": { "zone_id": "B083", "zone_name": "EL FORN D'ALCEDO" }, "geometry": { "type": "Point", "coordinates": [ -0.377474396205562, 39.431544302421941 ] } },
{ "type": "Feature", "properties": { "zone_id": "B084", "zone_name": "LA TORRE" }, "geometry": { "type": "Point", "coordinates": [ -0.391566269598521, 39.432546057347835 ] } },
{ "type": "Feature", "properties": { "zone_id": "B085", "zone_name": "SANT FRANCESC" }, "geometry": { "type": "Point", "coordinates": [ -0.376693286256139, 39.470599917002517 ] } },
{ "type": "Feature", "properties": { "zone_id": "B086", "zone_name": "SANT MARCEL.LI" }, "geometry": { "type": "Point", "coordinates": [ -0.390062434848295, 39.444836343686077 ] } },
{ "type": "Feature", "properties": { "zone_id": "B087", "zone_name": "ELS ORRIOLS" }, "geometry": { "type": "Point", "coordinates": [ -0.369469769963068, 39.496444782855725 ] } },
{ "type": "Feature", "properties": { "zone_id": "B088", "zone_name": "LA SEU" }, "geometry": { "type": "Point", "coordinates": [ -0.376198764919601, 39.476421910222797 ] } }
]
}
